{
  "54.6165984371235:-5.98035463617843": {
    "name": "Forthriver Drive",
    "lon": -5.98035463617843,
    "code": "54.6165984371235:-5.98035463617843",
    "street": "Forthriver Road",
    "lat": 54.6165984371235,
    "direction": "Outward"
  },
  "54.604483538365:-5.97962365507573": {
    "name": "Ballygomartin(Highcliffe Gardens)",
    "lon": -5.97962365507573,
    "code": "54.604483538365:-5.97962365507573",
    "street": "Ballygomartin Road",
    "lat": 54.604483538365,
    "direction": "Outward"
  },
  "54.5760648416268:-6.01932512950856": {
    "name": "Glencolin",
    "lon": -6.01932512950856,
    "code": "54.5760648416268:-6.01932512950856",
    "street": "Glen Road",
    "lat": 54.5760648416268,
    "direction": "Outward"
  },
  "54.5805924151236:-5.93860920763585": {
    "name": "Malone Road(Eglantine Ave)",
    "lon": -5.93860920763585,
    "code": "54.5805924151236:-5.93860920763585",
    "street": "Malone Road",
    "lat": 54.5805924151236,
    "direction": "Inwaf"
  },
  "54.6578507777715:-5.93998254943782": {
    "name": "Hazelwood Park",
    "lon": -5.93998254943782,
    "code": "54.6578507777715:-5.93998254943782",
    "street": "Antrim Road",
    "lat": 54.6578507777715,
    "direction": "Inward"
  },
  "54.6175823434759:-5.923811096876": {
    "name": "Ivan Street",
    "lon": -5.923811096876,
    "code": "54.6175823434759:-5.923811096876",
    "street": "Shore Road",
    "lat": 54.6175823434759,
    "direction": "Inward"
  },
  "54.5672693978209:-5.94928652281549": {
    "name": "Malone Road (Bladon Drive)",
    "lon": -5.94928652281549,
    "code": "54.5672693978209:-5.94928652281549",
    "street": "Malone Road",
    "lat": 54.5672693978209,
    "direction": "Outward"
  },
  "54.5812226924973:-5.93815972417299": {
    "name": "Malone Road (Eglantine Ave)",
    "lon": -5.93815972417299,
    "code": "54.5812226924973:-5.93815972417299",
    "street": "Malone Road",
    "lat": 54.5812226924973,
    "direction": "Outward"
  },
  "54.6156735408101:-5.94251720727418": {
    "name": "Manor Street",
    "lon": -5.94251720727418,
    "code": "54.6156735408101:-5.94251720727418",
    "street": "Cliftonville Road",
    "lat": 54.6156735408101,
    "direction": "Outward"
  },
  "54.6044713311567:-5.9548297251697": {
    "name": "Tennent Street",
    "lon": -5.9548297251697,
    "code": "54.6044713311567:-5.9548297251697",
    "street": "Shankill Road",
    "lat": 54.6044713311567,
    "direction": "Inward"
  },
  "54.6157972110454:-5.96791623253948": {
    "name": "Everton Complex",
    "lon": -5.96791623253948,
    "code": "54.6157972110454:-5.96791623253948",
    "street": "Crumlin Road",
    "lat": 54.6157972110454,
    "direction": "Inward"
  },
  "54.5622083053829:-5.98602911169192": {
    "name": "Finaghy Park Central",
    "lon": -5.98602911169192,
    "code": "54.5622083053829:-5.98602911169192",
    "street": "Finaghy Road North",
    "lat": 54.5622083053829,
    "direction": "Inward"
  },
  "54.5818072934899:-5.92139299370486": {
    "name": "Ormeau Park",
    "lon": -5.92139299370486,
    "code": "54.5818072934899:-5.92139299370486",
    "street": "Ormeau Road",
    "lat": 54.5818072934899,
    "direction": "Outward"
  },
  "54.5853945433939:-5.89037817124385": {
    "name": "Ladas Drive",
    "lon": -5.89037817124385,
    "code": "54.5853945433939:-5.89037817124385",
    "street": "Castlereagh Road",
    "lat": 54.5853945433939,
    "direction": "Inward"
  },
  "54.5889963137304:-5.93456432398003": {
    "name": "Bradbury Place",
    "lon": -5.93456432398003,
    "code": "54.5889963137304:-5.93456432398003",
    "street": "Bradbury Place",
    "lat": 54.5889963137304,
    "direction": "Outward"
  },
  "54.5757046224162:-5.94494979986735": {
    "name": "Malone Road(Adelaide Park)",
    "lon": -5.94494979986735,
    "code": "54.5757046224162:-5.94494979986735",
    "street": "Malone Road",
    "lat": 54.5757046224162,
    "direction": "Inward"
  },
  "54.6139886955879:-5.9374935379555": {
    "name": "Belfast Royal Academy",
    "lon": -5.9374935379555,
    "code": "54.6139886955879:-5.9374935379555",
    "street": "Cliftonville Road",
    "lat": 54.6139886955879,
    "direction": "Outward"
  },
  "54.6078638341377:-5.96312633056701": {
    "name": "Woodvale Park",
    "lon": -5.96312633056701,
    "code": "54.6078638341377:-5.96312633056701",
    "street": "Woodvale Road",
    "lat": 54.6078638341377,
    "direction": "Outward"
  },
  "54.576497210361:-6.01336502479562": {
    "name": "Shaws Jct.",
    "lon": -6.01336502479562,
    "code": "54.576497210361:-6.01336502479562",
    "street": "Glen Road",
    "lat": 54.576497210361,
    "direction": "Outward"
  },
  "54.5961992313298:-5.87779581933151": {
    "name": "Clonlee Drive",
    "lon": -5.87779581933151,
    "code": "54.5961992313298:-5.87779581933151",
    "street": "Upper Newtownards Road",
    "lat": 54.5961992313298,
    "direction": "Outward"
  },
  "54.5838285954177:-5.92241931776111": {
    "name": "Ormeau Road ( Agincourt Avenue)",
    "lon": -5.92241931776111,
    "code": "54.5838285954177:-5.92241931776111",
    "street": "Ormeau Road",
    "lat": 54.5838285954177,
    "direction": "Inward"
  },
  "54.5519593855824:-5.97651800559893": {
    "name": "Finaghy Road South(Trossachs)",
    "lon": -5.97651800559893,
    "code": "54.5519593855824:-5.97651800559893",
    "street": "Finaghy Road South",
    "lat": 54.5519593855824,
    "direction": "Inward"
  },
  "54.5799814624042:-5.89737116227402": {
    "name": "Onslow",
    "lon": -5.89737116227402,
    "code": "54.5799814624042:-5.89737116227402",
    "street": "Cregagh Road",
    "lat": 54.5799814624042,
    "direction": "Inward"
  },
  "54.6199398813436:-5.85903249718576": {
    "name": "Knocknagoney Tesco",
    "lon": -5.85903249718576,
    "code": "54.6199398813436:-5.85903249718576",
    "street": "KnocknagoneyRoad",
    "lat": 54.6199398813436,
    "direction": "Outward"
  },
  "54.6304860805636:-5.96194896726703": {
    "name": "Carrs Glen",
    "lon": -5.96194896726703,
    "code": "54.6304860805636:-5.96194896726703",
    "street": "Ballysillan Road",
    "lat": 54.6304860805636,
    "direction": "Outward"
  },
  "54.6095109616806:-5.96703766549157": {
    "name": "Woodvale Park(Ballygomartin)",
    "lon": -5.96703766549157,
    "code": "54.6095109616806:-5.96703766549157",
    "street": "Ballygomartin Road",
    "lat": 54.6095109616806,
    "direction": "Inward"
  },
  "54.6191204017883:-5.97320048714424": {
    "name": "Wheatfield Gardens",
    "lon": -5.97320048714424,
    "code": "54.6191204017883:-5.97320048714424",
    "street": "Crumlin Road",
    "lat": 54.6191204017883,
    "direction": "Outward"
  },
  "54.5681682447698:-6.01336821450457": {
    "name": "Suffolk Road(Woodbourne)",
    "lon": -6.01336821450457,
    "code": "54.5681682447698:-6.01336821450457",
    "street": "Suffolk Road",
    "lat": 54.5681682447698,
    "direction": "Outward"
  },
  "54.5730664927774:-5.99440149984197": {
    "name": "Ballyowen",
    "lon": -5.99440149984197,
    "code": "54.5730664927774:-5.99440149984197",
    "street": "Andersonstown Road",
    "lat": 54.5730664927774,
    "direction": "Inward"
  },
  "54.6563952150212:-5.93787113613773": {
    "name": "Tree Tops",
    "lon": -5.93787113613773,
    "code": "54.6563952150212:-5.93787113613773",
    "street": "Antrim Road",
    "lat": 54.6563952150212,
    "direction": "Outward"
  },
  "54.6000481359771:-5.88465252725987": {
    "name": "Dundela Park",
    "lon": -5.88465252725987,
    "code": "54.6000481359771:-5.88465252725987",
    "street": "Connsbrook Avenue",
    "lat": 54.6000481359771,
    "direction": "Outward"
  },
  "54.6475628346362:-5.92209658014116": {
    "name": "Hazelwood College",
    "lon": -5.92209658014116,
    "code": "54.6475628346362:-5.92209658014116",
    "street": "Whitewell Road",
    "lat": 54.6475628346362,
    "direction": "Outward"
  },
  "54.572035315602:-5.93420072749944": {
    "name": "Sharman Road",
    "lon": -5.93420072749944,
    "code": "54.572035315602:-5.93420072749944",
    "street": "Stranmillis Road",
    "lat": 54.572035315602,
    "direction": "Inward"
  },
  "54.6048765451501:-5.93162415560734": {
    "name": "Donegall Street",
    "lon": -5.93162415560734,
    "code": "54.6048765451501:-5.93162415560734",
    "street": "Donegall Street",
    "lat": 54.6048765451501,
    "direction": "Inward"
  },
  "54.6190136821944:-5.8594991969378": {
    "name": "Knocknagoney Drive",
    "lon": -5.8594991969378,
    "code": "54.6190136821944:-5.8594991969378",
    "street": "KnocknagoneyRoad",
    "lat": 54.6190136821944,
    "direction": "Inward"
  },
  "54.6088420674535:-5.97268985443442": {
    "name": "Ballygomartin(West Circular Road)",
    "lon": -5.97268985443442,
    "code": "54.6088420674535:-5.97268985443442",
    "street": "Ballygomartin Road",
    "lat": 54.6088420674535,
    "direction": "Other"
  },
  "54.5795159116522:-5.95034179753421": {
    "name": "Windsor Road",
    "lon": -5.95034179753421,
    "code": "54.5795159116522:-5.95034179753421",
    "street": "Lisburn Road",
    "lat": 54.5795159116522,
    "direction": "Outward"
  },
  "54.5974518747616:-5.89394827177958": {
    "name": "Bloomfield Commercial Centre",
    "lon": -5.89394827177958,
    "code": "54.5974518747616:-5.89394827177958",
    "street": "Albert Bridge Road",
    "lat": 54.5974518747616,
    "direction": "Inward"
  },
  "54.6255062172377:-5.93794810217924": {
    "name": "Antrim Road(Salisbury Avenue)",
    "lon": -5.93794810217924,
    "code": "54.6255062172377:-5.93794810217924",
    "street": "Antrim Road",
    "lat": 54.6255062172377,
    "direction": "Inward"
  },
  "54.6102009563135:-5.94723600814659": {
    "name": "Oldpark Road (Agness Street)",
    "lon": -5.94723600814659,
    "code": "54.6102009563135:-5.94723600814659",
    "street": "Oldpark Road",
    "lat": 54.6102009563135,
    "direction": "Inward"
  },
  "54.6077527207507:-5.9629306608554": {
    "name": "Woodvale Park",
    "lon": -5.9629306608554,
    "code": "54.6077527207507:-5.9629306608554",
    "street": "Woodvale Road",
    "lat": 54.6077527207507,
    "direction": "Inward"
  },
  "54.5944517841905:-5.84905909603612": {
    "name": "Cabin Hill",
    "lon": -5.84905909603612,
    "code": "54.5944517841905:-5.84905909603612",
    "street": "Upper Newtownards Road",
    "lat": 54.5944517841905,
    "direction": "Outward"
  },
  "54.5951375597241:-5.90607551442407": {
    "name": "The Mount",
    "lon": -5.90607551442407,
    "code": "54.5951375597241:-5.90607551442407",
    "street": "Albert Bridge Road",
    "lat": 54.5951375597241,
    "direction": "Inward"
  },
  "54.5915659119483:-5.89287507181533": {
    "name": "Elmgrove",
    "lon": -5.89287507181533,
    "code": "54.5915659119483:-5.89287507181533",
    "street": "Beersbridge Road",
    "lat": 54.5915659119483,
    "direction": "Inward"
  },
  "54.5770603265682:-5.91809278471514": {
    "name": "Ulidia",
    "lon": -5.91809278471514,
    "code": "54.5770603265682:-5.91809278471514",
    "street": "Ormeau Road",
    "lat": 54.5770603265682,
    "direction": "Outward"
  },
  "54.6017982623376:-5.88299862323335": {
    "name": "Parkgate Avenue",
    "lon": -5.88299862323335,
    "code": "54.6017982623376:-5.88299862323335",
    "street": "Connsbrook Avenue",
    "lat": 54.6017982623376,
    "direction": "Outward"
  },
  "54.6474342503623:-5.91984105999312": {
    "name": "M2 Onslip",
    "lon": -5.91984105999312,
    "code": "54.6474342503623:-5.91984105999312",
    "street": "Shore Road",
    "lat": 54.6474342503623,
    "direction": "Outward"
  },
  "54.6080901992781:-5.87544329621116": {
    "name": "Station Road",
    "lon": -5.87544329621116,
    "code": "54.6080901992781:-5.87544329621116",
    "street": "Station Road",
    "lat": 54.6080901992781,
    "direction": "Outward"
  },
  "54.564289458729:-5.97828827687116": {
    "name": "Priory Park",
    "lon": -5.97828827687116,
    "code": "54.564289458729:-5.97828827687116",
    "street": "Upper Lisburn Road",
    "lat": 54.564289458729,
    "direction": "Outward"
  },
  "54.5577621122026:-5.96197689542776": {
    "name": "Upper Malone Road(Flemming Fulton)",
    "lon": -5.96197689542776,
    "code": "54.5577621122026:-5.96197689542776",
    "street": "Upper Malone Road",
    "lat": 54.5577621122026,
    "direction": "Inward"
  },
  "54.6114655919169:-5.93601126911085": {
    "name": "Kane Cottage",
    "lon": -5.93601126911085,
    "code": "54.6114655919169:-5.93601126911085",
    "street": "Antrim Road",
    "lat": 54.6114655919169,
    "direction": "Outward"
  },
  "54.6097778291382:-5.97008924975192": {
    "name": "Ballygomartin(Glencairn Cres)",
    "lon": -5.97008924975192,
    "code": "54.6097778291382:-5.97008924975192",
    "street": "Ballygomartin Road",
    "lat": 54.6097778291382,
    "direction": "Other"
  },
  "54.6115790537488:-5.96338963086673": {
    "name": "Woodvale Parade",
    "lon": -5.96338963086673,
    "code": "54.6115790537488:-5.96338963086673",
    "street": "Woodvale Road",
    "lat": 54.6115790537488,
    "direction": "Outward"
  },
  "54.5952095500718:-5.95546431168081": {
    "name": "Falls Road(Royal Hospitals)",
    "lon": -5.95546431168081,
    "code": "54.5952095500718:-5.95546431168081",
    "street": "Falls Road",
    "lat": 54.5952095500718,
    "direction": "Outward"
  },
  "54.5831979093322:-5.97906876648156": {
    "name": "Milltown Cemetery",
    "lon": -5.97906876648156,
    "code": "54.5831979093322:-5.97906876648156",
    "street": "Falls Road",
    "lat": 54.5831979093322,
    "direction": "Outward"
  },
  "54.5982991403048:-5.93475869168787": {
    "name": "King Street",
    "lon": -5.93475869168787,
    "code": "54.5982991403048:-5.93475869168787",
    "street": "College Square East",
    "lat": 54.5982991403048,
    "direction": "Inward"
  },
  "54.6256417175249:-5.92327657420486": {
    "name": "York Drive",
    "lon": -5.92327657420486,
    "code": "54.6256417175249:-5.92327657420486",
    "street": "Shore Road",
    "lat": 54.6256417175249,
    "direction": "Inward"
  },
  "54.5965258053033:-5.88310205671164": {
    "name": "Irwin Avenue",
    "lon": -5.88310205671164,
    "code": "54.5965258053033:-5.88310205671164",
    "street": "Upper Newtownards Road",
    "lat": 54.5965258053033,
    "direction": "Outward"
  },
  "54.5758378369193:-6.02357388477785": {
    "name": "Suffolk Road  Jct.",
    "lon": -6.02357388477785,
    "code": "54.5758378369193:-6.02357388477785",
    "street": "Glen Road",
    "lat": 54.5758378369193,
    "direction": "Outward"
  },
  "54.5759071122121:-5.98205900199298": {
    "name": "Fruithill",
    "lon": -5.98205900199298,
    "code": "54.5759071122121:-5.98205900199298",
    "street": "Andersonstown Road",
    "lat": 54.5759071122121,
    "direction": "Inward"
  },
  "54.5634214757977:-5.97850132214645": {
    "name": "Scilly Park",
    "lon": -5.97850132214645,
    "code": "54.5634214757977:-5.97850132214645",
    "street": "Scilly Park",
    "lat": 54.5634214757977,
    "direction": "Inward"
  },
  "54.5919883789818:-5.90374604733319": {
    "name": "Isthmus Street",
    "lon": -5.90374604733319,
    "code": "54.5919883789818:-5.90374604733319",
    "street": "Woodstock Road",
    "lat": 54.5919883789818,
    "direction": "Outward"
  },
  "54.6009801470191:-5.9312801094734": {
    "name": "Royal Avenue (Castlecourt)",
    "lon": -5.9312801094734,
    "code": "54.6009801470191:-5.9312801094734",
    "street": "Royal Avenue",
    "lat": 54.6009801470191,
    "direction": "Outward"
  },
  "54.6288606811693:-5.96413644283802": {
    "name": "Wallasey Park",
    "lon": -5.96413644283802,
    "code": "54.6288606811693:-5.96413644283802",
    "street": "Ballysillan Road",
    "lat": 54.6288606811693,
    "direction": "Inward"
  },
  "54.5940394306926:-5.93418520751154": {
    "name": "Great Northern Mall",
    "lon": -5.93418520751154,
    "code": "54.5940394306926:-5.93418520751154",
    "street": "Great Victoria Street",
    "lat": 54.5940394306926,
    "direction": "Outward"
  },
  "54.6514688761406:-5.93455680305328": {
    "name": "Ben Madigan Park",
    "lon": -5.93455680305328,
    "code": "54.6514688761406:-5.93455680305328",
    "street": "Antrim Road",
    "lat": 54.6514688761406,
    "direction": "Inward"
  },
  "54.6038317055149:-5.92989728396696": {
    "name": "Donegall Street",
    "lon": -5.92989728396696,
    "code": "54.6038317055149:-5.92989728396696",
    "street": "York Street",
    "lat": 54.6038317055149,
    "direction": "Outward"
  },
  "54.5703192002733:-5.912745612276": {
    "name": "Rosetta(Knockbreda Road)",
    "lon": -5.912745612276,
    "code": "54.5703192002733:-5.912745612276",
    "street": "Knockbreda Road",
    "lat": 54.5703192002733,
    "direction": "Inward"
  },
  "54.6126625203405:-5.94774675533696": {
    "name": "Hillview Road",
    "lon": -5.94774675533696,
    "code": "54.6126625203405:-5.94774675533696",
    "street": "Oldpark Road",
    "lat": 54.6126625203405,
    "direction": "Inward"
  },
  "54.5811798852969:-5.9483246764909": {
    "name": "Windsor Avenue",
    "lon": -5.9483246764909,
    "code": "54.5811798852969:-5.9483246764909",
    "street": "Lisburn Road",
    "lat": 54.5811798852969,
    "direction": "Inward"
  },
  "54.6088819025863:-5.92468758414233": {
    "name": "Yorkgate Station",
    "lon": -5.92468758414233,
    "code": "54.6088819025863:-5.92468758414233",
    "street": "York Street",
    "lat": 54.6088819025863,
    "direction": "Outward"
  },
  "54.5929447317508:-5.93321942540457": {
    "name": "Bruce Street",
    "lon": -5.93321942540457,
    "code": "54.5929447317508:-5.93321942540457",
    "street": "Bruce Street",
    "lat": 54.5929447317508,
    "direction": "Inward"
  },
  "54.5797894602779:-5.93894365238667": {
    "name": "Malone Road (Chlorine Gardens)",
    "lon": -5.93894365238667,
    "code": "54.5797894602779:-5.93894365238667",
    "street": "Malone Road",
    "lat": 54.5797894602779,
    "direction": "Outward"
  },
  "54.6036342731518:-5.94202581234509": {
    "name": "Lower Shankill",
    "lon": -5.94202581234509,
    "code": "54.6036342731518:-5.94202581234509",
    "street": "Shankill Road",
    "lat": 54.6036342731518,
    "direction": "Inward"
  },
  "54.5764870246415:-6.01438630804523": {
    "name": "Shaws Road Jct.",
    "lon": -6.01438630804523,
    "code": "54.5764870246415:-6.01438630804523",
    "street": "Glen Road",
    "lat": 54.5764870246415,
    "direction": "Inward"
  },
  "54.5761042952519:-6.019539743661": {
    "name": "Glencolin",
    "lon": -6.019539743661,
    "code": "54.5761042952519:-6.019539743661",
    "street": "Glen Road",
    "lat": 54.5761042952519,
    "direction": "Inward"
  },
  "54.5932167412786:-5.95876709652067": {
    "name": "Childrens Hospital",
    "lon": -5.95876709652067,
    "code": "54.5932167412786:-5.95876709652067",
    "street": "Falls Road",
    "lat": 54.5932167412786,
    "direction": "Outward"
  },
  "54.5558525338574:-5.99230952844086": {
    "name": "Blacks Road",
    "lon": -5.99230952844086,
    "code": "54.5558525338574:-5.99230952844086",
    "street": "Upper Lisburn Road",
    "lat": 54.5558525338574,
    "direction": "Outward"
  },
  "54.5668059165468:-5.99722943792636": {
    "name": "Ladybrook Avenue",
    "lon": -5.99722943792636,
    "code": "54.5668059165468:-5.99722943792636",
    "street": "Ladybrook Park",
    "lat": 54.5668059165468,
    "direction": "Outward"
  },
  "54.6143367118606:-5.93682572403723": {
    "name": "Cliftonville Road",
    "lon": -5.93682572403723,
    "code": "54.6143367118606:-5.93682572403723",
    "street": "Antrim Road",
    "lat": 54.6143367118606,
    "direction": "Outward"
  },
  "54.5978504853268:-5.93006158387374": {
    "name": "Donegal Place",
    "lon": -5.93006158387374,
    "code": "54.5978504853268:-5.93006158387374",
    "street": "Donegall Place",
    "lat": 54.5978504853268,
    "direction": "Other"
  },
  "54.5866065463801:-5.89289911764958": {
    "name": "Loopland",
    "lon": -5.89289911764958,
    "code": "54.5866065463801:-5.89289911764958",
    "street": "Castlereagh Road",
    "lat": 54.5866065463801,
    "direction": "Inward"
  },
  "54.6183416964423:-5.95362286098916": {
    "name": "Deerpark Road(The Park)",
    "lon": -5.95362286098916,
    "code": "54.6183416964423:-5.95362286098916",
    "street": "Oldpark Road",
    "lat": 54.6183416964423,
    "direction": "Inward"
  },
  "54.5973293045528:-5.9311093590533": {
    "name": "Donegal Square North",
    "lon": -5.9311093590533,
    "code": "54.5973293045528:-5.9311093590533",
    "street": "Donegall Square North",
    "lat": 54.5973293045528,
    "direction": "CityCentre"
  },
  "54.615349089771:-5.97871359155056": {
    "name": "Forthriver Way",
    "lon": -5.97871359155056,
    "code": "54.615349089771:-5.97871359155056",
    "street": "Forthriver Road",
    "lat": 54.615349089771,
    "direction": "Outward"
  },
  "54.6032748765359:-5.937277073137": {
    "name": "Peter's Hill",
    "lon": -5.937277073137,
    "code": "54.6032748765359:-5.937277073137",
    "street": "Peter's Hill",
    "lat": 54.6032748765359,
    "direction": "Inward"
  },
  "54.5657551133705:-6.00977462696979": {
    "name": "Blacks Road(Erris Grove)",
    "lon": -6.00977462696979,
    "code": "54.5657551133705:-6.00977462696979",
    "street": "Blacks Road",
    "lat": 54.5657551133705,
    "direction": "Other"
  },
  "54.5733600324339:-5.91557500906199": {
    "name": "Nazareth House",
    "lon": -5.91557500906199,
    "code": "54.5733600324339:-5.91557500906199",
    "street": "Ormeau Road",
    "lat": 54.5733600324339,
    "direction": "Inward"
  },
  "54.6000970351107:-5.92692980531216": {
    "name": "High Street",
    "lon": -5.92692980531216,
    "code": "54.6000970351107:-5.92692980531216",
    "street": "High Street",
    "lat": 54.6000970351107,
    "direction": "Outward"
  },
  "54.5848860095637:-5.93642764714222": {
    "name": "Queen's University",
    "lon": -5.93642764714222,
    "code": "54.5848860095637:-5.93642764714222",
    "street": "University Road",
    "lat": 54.5848860095637,
    "direction": "Inward"
  },
  "54.6498559738217:-5.92483054706721": {
    "name": "Veryan Gardens",
    "lon": -5.92483054706721,
    "code": "54.6498559738217:-5.92483054706721",
    "street": "Whitewell Road",
    "lat": 54.6498559738217,
    "direction": "Inward"
  },
  "54.6336987430792:-5.93731656110694": {
    "name": "North Circular Road",
    "lon": -5.93731656110694,
    "code": "54.6336987430792:-5.93731656110694",
    "street": "Antrim Road",
    "lat": 54.6336987430792,
    "direction": "Inward"
  },
  "54.6166398624973:-5.96940692636678": {
    "name": "Somerdale Park",
    "lon": -5.96940692636678,
    "code": "54.6166398624973:-5.96940692636678",
    "street": "Crumlin Road",
    "lat": 54.6166398624973,
    "direction": "Outward"
  },
  "54.5804155013499:-5.98032023881697": {
    "name": "Kennedy Centre",
    "lon": -5.98032023881697,
    "code": "54.5804155013499:-5.98032023881697",
    "street": "Falls Road",
    "lat": 54.5804155013499,
    "direction": "Inward"
  },
  "54.6082593823863:-5.93662246177689": {
    "name": "Carlisle Circus(Antrim Road)",
    "lon": -5.93662246177689,
    "code": "54.6082593823863:-5.93662246177689",
    "street": "Antrim Road",
    "lat": 54.6082593823863,
    "direction": "Outward"
  },
  "54.5821031636089:-5.89795795654146": {
    "name": "Ardenlee",
    "lon": -5.89795795654146,
    "code": "54.5821031636089:-5.89795795654146",
    "street": "Cregagh Road",
    "lat": 54.5821031636089,
    "direction": "Outward"
  },
  "54.5822947469304:-5.93621835541561": {
    "name": "Ulster Museuem",
    "lon": -5.93621835541561,
    "code": "54.5822947469304:-5.93621835541561",
    "street": "Stranmillis Road",
    "lat": 54.5822947469304,
    "direction": "Outward"
  },
  "54.6640357515384:-5.94811690283411": {
    "name": "Bellevue Bridge",
    "lon": -5.94811690283411,
    "code": "54.6640357515384:-5.94811690283411",
    "street": "Antrim Road",
    "lat": 54.6640357515384,
    "direction": "Outward"
  },
  "54.5977941575544:-5.89038683602743": {
    "name": "Connswater",
    "lon": -5.89038683602743,
    "code": "54.5977941575544:-5.89038683602743",
    "street": "Newtownards Road",
    "lat": 54.5977941575544,
    "direction": "Inward"
  },
  "54.6157291593455:-5.95109119394933": {
    "name": "Ardoyne Avenue",
    "lon": -5.95109119394933,
    "code": "54.6157291593455:-5.95109119394933",
    "street": "Oldpark Road",
    "lat": 54.6157291593455,
    "direction": "Outward"
  },
  "54.6092648309173:-5.96308729769024": {
    "name": "Woodvale Road Youth Club",
    "lon": -5.96308729769024,
    "code": "54.6092648309173:-5.96308729769024",
    "street": "Woodvale Road",
    "lat": 54.6092648309173,
    "direction": "Inward"
  },
  "54.5821651084453:-5.98772051924241": {
    "name": "Glenowen",
    "lon": -5.98772051924241,
    "code": "54.5821651084453:-5.98772051924241",
    "street": "Glen Road",
    "lat": 54.5821651084453,
    "direction": "Outward"
  },
  "54.5965983524212:-5.9541722325827": {
    "name": "Dunville Park",
    "lon": -5.9541722325827,
    "code": "54.5965983524212:-5.9541722325827",
    "street": "Falls Road",
    "lat": 54.5965983524212,
    "direction": "Outward"
  },
  "54.5732465732606:-5.99117586779483": {
    "name": "Andersonstown Road (Slievegallion Drive)",
    "lon": -5.99117586779483,
    "code": "54.5732465732606:-5.99117586779483",
    "street": "Andersonstown Road",
    "lat": 54.5732465732606,
    "direction": "Inward"
  },
  "54.6581611042062:-5.93604591123337": {
    "name": "Fairyknowe Park",
    "lon": -5.93604591123337,
    "code": "54.6581611042062:-5.93604591123337",
    "street": "Whitewell Road",
    "lat": 54.6581611042062,
    "direction": "Outward"
  },
  "54.5945385056112:-5.8519171848198": {
    "name": "Hawthorden Court",
    "lon": -5.8519171848198,
    "code": "54.5945385056112:-5.8519171848198",
    "street": "Upper Newtownards Road",
    "lat": 54.5945385056112,
    "direction": "Outward"
  },
  "54.599686089404:-5.93074220136365": {
    "name": "Royal Avenue (Castlecourt)",
    "lon": -5.93074220136365,
    "code": "54.599686089404:-5.93074220136365",
    "street": "Royal Avenue",
    "lat": 54.599686089404,
    "direction": "Outward"
  },
  "54.5982708297707:-5.90956677997329": {
    "name": "Mountpottinger Road",
    "lon": -5.90956677997329,
    "code": "54.5982708297707:-5.90956677997329",
    "street": "Mountpottinger Road",
    "lat": 54.5982708297707,
    "direction": "Outward"
  },
  "54.6267447383445:-5.98480714746705": {
    "name": "Ligoniej Church",
    "lon": -5.98480714746705,
    "code": "54.6267447383445:-5.98480714746705",
    "street": "Ligoniel Road",
    "lat": 54.6267447383445,
    "direction": "Inward"
  },
  "54.6043294509028:-5.93115663208318": {
    "name": "Donegall Street",
    "lon": -5.93115663208318,
    "code": "54.6043294509028:-5.93115663208318",
    "street": "Donegall Street",
    "lat": 54.6043294509028,
    "direction": "Outward"
  },
  "54.6130792431608:-5.97622541912784": {
    "name": "Forthriver Scout Hall",
    "lon": -5.97622541912784,
    "code": "54.6130792431608:-5.97622541912784",
    "street": "Forthriver Road",
    "lat": 54.6130792431608,
    "direction": "Inward"
  },
  "54.5738693390283:-6.00056373931558": {
    "name": "Shaws Road(Stewartstown Road)",
    "lon": -6.00056373931558,
    "code": "54.5738693390283:-6.00056373931558",
    "street": "Shaws Road",
    "lat": 54.5738693390283,
    "direction": "Outward"
  },
  "54.634772064131:-5.92336869277219": {
    "name": "Loughside",
    "lon": -5.92336869277219,
    "code": "54.634772064131:-5.92336869277219",
    "street": "Shore Road",
    "lat": 54.634772064131,
    "direction": "Outward"
  },
  "54.6283348067268:-5.93890447768382": {
    "name": "Firmount",
    "lon": -5.93890447768382,
    "code": "54.6283348067268:-5.93890447768382",
    "street": "Antrim Road",
    "lat": 54.6283348067268,
    "direction": "Outward"
  },
  "54.6580641025461:-5.94037469166468": {
    "name": "Hazelwood Park",
    "lon": -5.94037469166468,
    "code": "54.6580641025461:-5.94037469166468",
    "street": "Antrim Road",
    "lat": 54.6580641025461,
    "direction": "Outward"
  },
  "54.6164981923046:-5.96899597548194": {
    "name": "Somerdale Park",
    "lon": -5.96899597548194,
    "code": "54.6164981923046:-5.96899597548194",
    "street": "Crumlin Road",
    "lat": 54.6164981923046,
    "direction": "Inward"
  },
  "54.5711078709693:-6.00309596554511": {
    "name": "Hillhead Crescent",
    "lon": -6.00309596554511,
    "code": "54.5711078709693:-6.00309596554511",
    "street": "Stewartstown Road",
    "lat": 54.5711078709693,
    "direction": "Inward"
  },
  "54.5820756482493:-5.9471040167757": {
    "name": "Melrose St",
    "lon": -5.9471040167757,
    "code": "54.5820756482493:-5.9471040167757",
    "street": "Lisburn Road",
    "lat": 54.5820756482493,
    "direction": "Inward"
  },
  "54.6250090684096:-5.92306105521293": {
    "name": "Premier Drive",
    "lon": -5.92306105521293,
    "code": "54.6250090684096:-5.92306105521293",
    "street": "Shore Road",
    "lat": 54.6250090684096,
    "direction": "Inward"
  },
  "54.6432672521419:-5.92205242252077": {
    "name": "Shore Road(Grays Lane)",
    "lon": -5.92205242252077,
    "code": "54.6432672521419:-5.92205242252077",
    "street": "Shore Road",
    "lat": 54.6432672521419,
    "direction": "Outward"
  },
  "54.6119947759041:-5.92335262239024": {
    "name": "York Street(St Pauls)",
    "lon": -5.92335262239024,
    "code": "54.6119947759041:-5.92335262239024",
    "street": "York Street",
    "lat": 54.6119947759041,
    "direction": "Inward"
  },
  "54.6099189861031:-5.94703349410439": {
    "name": "Oldpark Road (Agness Street)",
    "lon": -5.94703349410439,
    "code": "54.6099189861031:-5.94703349410439",
    "street": "Oldpark Road",
    "lat": 54.6099189861031,
    "direction": "Outward"
  },
  "54.6169179789361:-5.94542694168089": {
    "name": "Glenard Brook",
    "lon": -5.94542694168089,
    "code": "54.6169179789361:-5.94542694168089",
    "street": "Cliftonville Road",
    "lat": 54.6169179789361,
    "direction": "Outward"
  },
  "54.6029336920899:-5.98151120178294": {
    "name": "Springhill Primary School",
    "lon": -5.98151120178294,
    "code": "54.6029336920899:-5.98151120178294",
    "street": "Ballygomartin Road",
    "lat": 54.6029336920899,
    "direction": "Outward"
  },
  "54.5797382511639:-5.95020688900395": {
    "name": "Windsor Road",
    "lon": -5.95020688900395,
    "code": "54.5797382511639:-5.95020688900395",
    "street": "Lisburn Road",
    "lat": 54.5797382511639,
    "direction": "Inward"
  },
  "54.5776944360267:-5.94149324974227": {
    "name": "Malone Road Opp(Sans Souci Park)",
    "lon": -5.94149324974227,
    "code": "54.5776944360267:-5.94149324974227",
    "street": "Malone Road",
    "lat": 54.5776944360267,
    "direction": "Outward"
  },
  "54.5815729786549:-5.89795432629874": {
    "name": "Ardenlee",
    "lon": -5.89795432629874,
    "code": "54.5815729786549:-5.89795432629874",
    "street": "Cregagh Road",
    "lat": 54.5815729786549,
    "direction": "Inward"
  },
  "54.6407529655694:-5.9231876448272": {
    "name": "Parkmount",
    "lon": -5.9231876448272,
    "code": "54.6407529655694:-5.9231876448272",
    "street": "Shore Road",
    "lat": 54.6407529655694,
    "direction": "Outward"
  },
  "54.5887277654264:-5.89603858777901": {
    "name": "Channing Street",
    "lon": -5.89603858777901,
    "code": "54.5887277654264:-5.89603858777901",
    "street": "Castlereagh Road",
    "lat": 54.5887277654264,
    "direction": "Outward"
  },
  "54.6219161088539:-5.93817621815431": {
    "name": "Willowbank Gardens",
    "lon": -5.93817621815431,
    "code": "54.6219161088539:-5.93817621815431",
    "street": "Antrim Road",
    "lat": 54.6219161088539,
    "direction": "Outward"
  },
  "54.6248212341927:-5.96275880078179": {
    "name": "Carrs Glen Primary School",
    "lon": -5.96275880078179,
    "code": "54.6248212341927:-5.96275880078179",
    "street": "Oldpark Road",
    "lat": 54.6248212341927,
    "direction": "Inward"
  },
  "54.5963732330455:-5.93142091404471": {
    "name": "Donegall Square West",
    "lon": -5.93142091404471,
    "code": "54.5963732330455:-5.93142091404471",
    "street": "Donegall Square West",
    "lat": 54.5963732330455,
    "direction": "CityCentre"
  },
  "54.5535237428581:-5.978187270001": {
    "name": "Chippendale Court",
    "lon": -5.978187270001,
    "code": "54.5535237428581:-5.978187270001",
    "street": "Finaghy Road South",
    "lat": 54.5535237428581,
    "direction": "Outward"
  },
  "54.601568955028:-5.93155976693722": {
    "name": "Royal Avenue (Castlecourt)",
    "lon": -5.93155976693722,
    "code": "54.601568955028:-5.93155976693722",
    "street": "Royal Avenue",
    "lat": 54.601568955028,
    "direction": "Outward"
  },
  "54.5957608689193:-5.90938592854883": {
    "name": "Short Strand / Albert Bridge Road",
    "lon": -5.90938592854883,
    "code": "54.5957608689193:-5.90938592854883",
    "street": "Albert Bridge Road",
    "lat": 54.5957608689193,
    "direction": "Outward"
  },
  "54.5853068259107:-5.89927807005388": {
    "name": "Loopland",
    "lon": -5.89927807005388,
    "code": "54.5853068259107:-5.89927807005388",
    "street": "Cregagh Road",
    "lat": 54.5853068259107,
    "direction": "Outward"
  },
  "54.577788065446:-5.97955315266188": {
    "name": "Westwood Centre",
    "lon": -5.97955315266188,
    "code": "54.577788065446:-5.97955315266188",
    "street": "Andersonstown Road",
    "lat": 54.577788065446,
    "direction": "Outward"
  },
  "54.5732434955868:-5.95879153538891": {
    "name": "Capstone Street",
    "lon": -5.95879153538891,
    "code": "54.5732434955868:-5.95879153538891",
    "street": "Lisburn Road",
    "lat": 54.5732434955868,
    "direction": "Inward"
  },
  "54.6123724854527:-5.92966485212853": {
    "name": "Adam Street",
    "lon": -5.92966485212853,
    "code": "54.6123724854527:-5.92966485212853",
    "street": "Duncairn Gardens",
    "lat": 54.6123724854527,
    "direction": "Inward"
  },
  "54.6061259909362:-5.93375864961216": {
    "name": "Clifton Street",
    "lon": -5.93375864961216,
    "code": "54.6061259909362:-5.93375864961216",
    "street": "Clifton Street",
    "lat": 54.6061259909362,
    "direction": "Inward"
  },
  "54.5994251689282:-5.92914599328565": {
    "name": "Castle Junction",
    "lon": -5.92914599328565,
    "code": "54.5994251689282:-5.92914599328565",
    "street": "Castle Place",
    "lat": 54.5994251689282,
    "direction": "Outward"
  },
  "54.5516164287898:-5.97642678994831": {
    "name": "Finaghy Road South(Trossachs)",
    "lon": -5.97642678994831,
    "code": "54.5516164287898:-5.97642678994831",
    "street": "Finaghy Road South",
    "lat": 54.5516164287898,
    "direction": "Outward"
  },
  "54.6220486640936:-5.97691034190135": {
    "name": "Crumlin Road(Glenbank Corner)",
    "lon": -5.97691034190135,
    "code": "54.6220486640936:-5.97691034190135",
    "street": "Crumlin Road",
    "lat": 54.6220486640936,
    "direction": "Outward"
  },
  "54.5751414663862:-6.02439636155857": {
    "name": "Suffolk Heights",
    "lon": -6.02439636155857,
    "code": "54.5751414663862:-6.02439636155857",
    "street": "Suffolk Road",
    "lat": 54.5751414663862,
    "direction": "Outward"
  },
  "54.5662481560024:-5.97291852144334": {
    "name": "Kingscourt",
    "lon": -5.97291852144334,
    "code": "54.5662481560024:-5.97291852144334",
    "street": "Upper Lisburn Road",
    "lat": 54.5662481560024,
    "direction": "Outward"
  },
  "54.5699314030338:-5.96432317896152": {
    "name": "Malone Park",
    "lon": -5.96432317896152,
    "code": "54.5699314030338:-5.96432317896152",
    "street": "Lisburn Road",
    "lat": 54.5699314030338,
    "direction": "Outward"
  },
  "54.5835402743347:-5.94446242682982": {
    "name": "Ashley Avenue",
    "lon": -5.94446242682982,
    "code": "54.5835402743347:-5.94446242682982",
    "street": "Lisburn Road",
    "lat": 54.5835402743347,
    "direction": "Inward"
  },
  "54.5775434484991:-5.9527145020358": {
    "name": "Brookland Street",
    "lon": -5.9527145020358,
    "code": "54.5775434484991:-5.9527145020358",
    "street": "Lisburn Road",
    "lat": 54.5775434484991,
    "direction": "Inward"
  },
  "54.568241177767:-5.96853619780179": {
    "name": "Lisburn Road(Kings Hall)",
    "lon": -5.96853619780179,
    "code": "54.568241177767:-5.96853619780179",
    "street": "Lisburn Road",
    "lat": 54.568241177767,
    "direction": "Inward"
  },
  "54.5655411956807:-6.00007469082202": {
    "name": "Ladybrook(Turning Circle)",
    "lon": -6.00007469082202,
    "code": "54.5655411956807:-6.00007469082202",
    "street": "Ladybrook Cross",
    "lat": 54.5655411956807,
    "direction": "Terminal"
  },
  "54.5626731038962:-5.95217668351237": {
    "name": "Malone Road(Balmoral Ave)",
    "lon": -5.95217668351237,
    "code": "54.5626731038962:-5.95217668351237",
    "street": "Malone Road",
    "lat": 54.5626731038962,
    "direction": "Outward"
  },
  "54.5992001486797:-5.9118714124905": {
    "name": "Short Strand",
    "lon": -5.9118714124905,
    "code": "54.5992001486797:-5.9118714124905",
    "street": "Short Strand",
    "lat": 54.5992001486797,
    "direction": "Outward"
  },
  "54.5959315677026:-5.90004623941788": {
    "name": "Glenmore Street",
    "lon": -5.90004623941788,
    "code": "54.5959315677026:-5.90004623941788",
    "street": "Albert Bridge Road",
    "lat": 54.5959315677026,
    "direction": "Outward"
  },
  "54.5885731878442:-5.90110571457073": {
    "name": "Omeath Street",
    "lon": -5.90110571457073,
    "code": "54.5885731878442:-5.90110571457073",
    "street": "Woodstock Road",
    "lat": 54.5885731878442,
    "direction": "Inward"
  },
  "54.5993698384685:-5.94751809404784": {
    "name": "Twin Spires",
    "lon": -5.94751809404784,
    "code": "54.5993698384685:-5.94751809404784",
    "street": "Falls Road",
    "lat": 54.5993698384685,
    "direction": "Inward"
  },
  "54.5913596601649:-5.96586895311291": {
    "name": "Ard-Na-Va",
    "lon": -5.96586895311291,
    "code": "54.5913596601649:-5.96586895311291",
    "street": "Falls Road",
    "lat": 54.5913596601649,
    "direction": "Inward"
  },
  "54.5584963049766:-5.98973695212692": {
    "name": "Upton Park",
    "lon": -5.98973695212692,
    "code": "54.5584963049766:-5.98973695212692",
    "street": "Upper Lisburn Road",
    "lat": 54.5584963049766,
    "direction": "Inward"
  },
  "54.5557489095026:-5.96567922610122": {
    "name": "Upper Malone Road(Malton Drive)",
    "lon": -5.96567922610122,
    "code": "54.5557489095026:-5.96567922610122",
    "street": "Upper Malone Road",
    "lat": 54.5557489095026,
    "direction": "Outward"
  },
  "54.6180627583829:-5.93824729359827": {
    "name": "Waterworks",
    "lon": -5.93824729359827,
    "code": "54.6180627583829:-5.93824729359827",
    "street": "Antrim Road",
    "lat": 54.6180627583829,
    "direction": "Inward"
  },
  "54.5654864143257:-5.95064398493369": {
    "name": "Malone Road(Myrtlefield Park)",
    "lon": -5.95064398493369,
    "code": "54.5654864143257:-5.95064398493369",
    "street": "Malone Road",
    "lat": 54.5654864143257,
    "direction": "Inward"
  },
  "54.6026539055987:-5.93353217997559": {
    "name": "North Street",
    "lon": -5.93353217997559,
    "code": "54.6026539055987:-5.93353217997559",
    "street": "North Street",
    "lat": 54.6026539055987,
    "direction": "Inward"
  },
  "54.6229989065297:-5.97624379715361": {
    "name": "Crumlin Road(Glenbank Corner)",
    "lon": -5.97624379715361,
    "code": "54.6229989065297:-5.97624379715361",
    "street": "Crumlin Road",
    "lat": 54.6229989065297,
    "direction": "Inward"
  },
  "54.6235075231703:-5.97281195989868": {
    "name": "Bilston Road",
    "lon": -5.97281195989868,
    "code": "54.6235075231703:-5.97281195989868",
    "street": "Bilston Road",
    "lat": 54.6235075231703,
    "direction": "Inward"
  },
  "54.5962296673663:-5.95468589644628": {
    "name": "Dunville Park",
    "lon": -5.95468589644628,
    "code": "54.5962296673663:-5.95468589644628",
    "street": "Falls Road",
    "lat": 54.5962296673663,
    "direction": "Inward"
  },
  "54.6234702566391:-5.92292270278713": {
    "name": "Seaview",
    "lon": -5.92292270278713,
    "code": "54.6234702566391:-5.92292270278713",
    "street": "Shore Road",
    "lat": 54.6234702566391,
    "direction": "Outward"
  },
  "54.5940404720327:-5.82354917125469": {
    "name": "Ardcarn",
    "lon": -5.82354917125469,
    "code": "54.5940404720327:-5.82354917125469",
    "street": "Upper Newtownards Road",
    "lat": 54.5940404720327,
    "direction": "Inward"
  },
  "54.6193974820113:-5.95070550315987": {
    "name": "Knutsford Drive",
    "lon": -5.95070550315987,
    "code": "54.6193974820113:-5.95070550315987",
    "street": "Cliftonville Road",
    "lat": 54.6193974820113,
    "direction": "Outward"
  },
  "54.6315604015105:-5.97027397652776": {
    "name": "Silverstream(Ballysillan Pk)",
    "lon": -5.97027397652776,
    "code": "54.6315604015105:-5.97027397652776",
    "street": "Ballysillan Park",
    "lat": 54.6315604015105,
    "direction": "Terminal"
  },
  "54.6011523008662:-5.93136423356125": {
    "name": "Royal Avenue (Castlecourt)",
    "lon": -5.93136423356125,
    "code": "54.6011523008662:-5.93136423356125",
    "street": "Royal Avenue",
    "lat": 54.6011523008662,
    "direction": "Outward"
  },
  "54.5993273711065:-5.94713334743021": {
    "name": "Twin Spires",
    "lon": -5.94713334743021,
    "code": "54.5993273711065:-5.94713334743021",
    "street": "Falls Road",
    "lat": 54.5993273711065,
    "direction": "Outward"
  },
  "54.5741295538993:-5.98592049174308": {
    "name": "Owenvarragh Pk",
    "lon": -5.98592049174308,
    "code": "54.5741295538993:-5.98592049174308",
    "street": "Andersonstown Road",
    "lat": 54.5741295538993,
    "direction": "Outward"
  },
  "54.575727045289:-5.98203697054794": {
    "name": "Fruithill",
    "lon": -5.98203697054794,
    "code": "54.575727045289:-5.98203697054794",
    "street": "Andersonstown Road",
    "lat": 54.575727045289,
    "direction": "Outward"
  },
  "54.6089979817882:-5.964849752431": {
    "name": "Woodvale Park/Ballygomartin",
    "lon": -5.964849752431,
    "code": "54.6089979817882:-5.964849752431",
    "street": "Ballygomartin Road",
    "lat": 54.6089979817882,
    "direction": "Outward"
  },
  "54.6207133776001:-5.9755057067654": {
    "name": "Glenside Park",
    "lon": -5.9755057067654,
    "code": "54.6207133776001:-5.9755057067654",
    "street": "Crumlin Road",
    "lat": 54.6207133776001,
    "direction": "Inward"
  },
  "54.5737852455788:-6.02167821439084": {
    "name": "Donegal Celtic",
    "lon": -6.02167821439084,
    "code": "54.5737852455788:-6.02167821439084",
    "street": "Suffolk Road",
    "lat": 54.5737852455788,
    "direction": "Outward"
  },
  "54.5674470538882:-5.96993646533022": {
    "name": "Park Royal",
    "lon": -5.96993646533022,
    "code": "54.5674470538882:-5.96993646533022",
    "street": "Lisburn Road",
    "lat": 54.5674470538882,
    "direction": "Inward"
  },
  "54.5609643454065:-5.95314362201843": {
    "name": "Malone Road(Mount Eden Park)",
    "lon": -5.95314362201843,
    "code": "54.5609643454065:-5.95314362201843",
    "street": "Malone Road",
    "lat": 54.5609643454065,
    "direction": "Inward"
  },
  "54.5946533840091:-5.85636761214691": {
    "name": "Knock Road",
    "lon": -5.85636761214691,
    "code": "54.5946533840091:-5.85636761214691",
    "street": "Upper Newtownards Road",
    "lat": 54.5946533840091,
    "direction": "Inward"
  },
  "54.6138527487378:-5.86184468438962": {
    "name": "Holywood Road",
    "lon": -5.86184468438962,
    "code": "54.6138527487378:-5.86184468438962",
    "street": "Hollywood Road",
    "lat": 54.6138527487378,
    "direction": "Inward"
  },
  "54.6130226137834:-5.93616464504932": {
    "name": "New Lodge Road",
    "lon": -5.93616464504932,
    "code": "54.6130226137834:-5.93616464504932",
    "street": "Antrim Road",
    "lat": 54.6130226137834,
    "direction": "Outward"
  },
  "54.6206123566177:-5.9540043155061": {
    "name": "Oldpark Road",
    "lon": -5.9540043155061,
    "code": "54.6206123566177:-5.9540043155061",
    "street": "Oldpark Road",
    "lat": 54.6206123566177,
    "direction": "Inward"
  },
  "54.6239074186188:-5.97806364149877": {
    "name": "37 Ligoniel Road",
    "lon": -5.97806364149877,
    "code": "54.6239074186188:-5.97806364149877",
    "street": "Ligoniel Road",
    "lat": 54.6239074186188,
    "direction": "Inward"
  },
  "54.6064093159745:-5.96052129668796": {
    "name": "Cambria Street",
    "lon": -5.96052129668796,
    "code": "54.6064093159745:-5.96052129668796",
    "street": "Woodvale Road",
    "lat": 54.6064093159745,
    "direction": "Inward"
  },
  "54.5838232049382:-5.98100241087312": {
    "name": "Glen Parade",
    "lon": -5.98100241087312,
    "code": "54.5838232049382:-5.98100241087312",
    "street": "Glen Road",
    "lat": 54.5838232049382,
    "direction": "Inward"
  },
  "54.5729310678981:-5.99382047527206": {
    "name": "Ballyowen",
    "lon": -5.99382047527206,
    "code": "54.5729310678981:-5.99382047527206",
    "street": "Andersonstown Road",
    "lat": 54.5729310678981,
    "direction": "Outward"
  },
  "54.5799150263913:-5.97994283877157": {
    "name": "Andersonstown Park",
    "lon": -5.97994283877157,
    "code": "54.5799150263913:-5.97994283877157",
    "street": "Andersonstown Road",
    "lat": 54.5799150263913,
    "direction": "Outward"
  },
  "54.5957525516561:-5.90630700527139": {
    "name": "The Green",
    "lon": -5.90630700527139,
    "code": "54.5957525516561:-5.90630700527139",
    "street": "Mountpottinger Road",
    "lat": 54.5957525516561,
    "direction": "Inward"
  },
  "54.5594788754061:-5.95456310032022": {
    "name": "Malone Road(Malone Hill Park)",
    "lon": -5.95456310032022,
    "code": "54.5594788754061:-5.95456310032022",
    "street": "Malone Road",
    "lat": 54.5594788754061,
    "direction": "Inward"
  },
  "54.5889886603141:-5.93359000893296": {
    "name": "Botanic Avenue (Shaftsbury Square).",
    "lon": -5.93359000893296,
    "code": "54.5889886603141:-5.93359000893296",
    "street": "Botanic Avenue",
    "lat": 54.5889886603141,
    "direction": "Inward"
  },
  "54.6149338543216:-5.92445688203079": {
    "name": "Mountcollyer",
    "lon": -5.92445688203079,
    "code": "54.6149338543216:-5.92445688203079",
    "street": "York Road",
    "lat": 54.6149338543216,
    "direction": "Outward"
  },
  "54.6068665665504:-5.97651830398905": {
    "name": "Ballygomartin Road",
    "lon": -5.97651830398905,
    "code": "54.6068665665504:-5.97651830398905",
    "street": "Ballygomartin Road",
    "lat": 54.6068665665504,
    "direction": "Outward"
  },
  "54.5980659243481:-5.95222616673149": {
    "name": "Falls Library",
    "lon": -5.95222616673149,
    "code": "54.5980659243481:-5.95222616673149",
    "street": "Falls Road",
    "lat": 54.5980659243481,
    "direction": "Outward"
  },
  "54.5729339787311:-5.95908538592467": {
    "name": "Lancefield Road",
    "lon": -5.95908538592467,
    "code": "54.5729339787311:-5.95908538592467",
    "street": "Lisburn Road",
    "lat": 54.5729339787311,
    "direction": "Outward"
  },
  "54.5963335495866:-5.88238473658477": {
    "name": "Beersbridge Road",
    "lon": -5.88238473658477,
    "code": "54.5963335495866:-5.88238473658477",
    "street": "Upper Newtownards Road",
    "lat": 54.5963335495866,
    "direction": "Inward"
  },
  "54.6108402868324:-5.86526896150488": {
    "name": "Ashfield Girls",
    "lon": -5.86526896150488,
    "code": "54.6108402868324:-5.86526896150488",
    "street": "Hollywood Road",
    "lat": 54.6108402868324,
    "direction": "Inward"
  },
  "54.5975073857845:-5.92733997058128": {
    "name": "Chichester Street",
    "lon": -5.92733997058128,
    "code": "54.5975073857845:-5.92733997058128",
    "street": "Chichester Street",
    "lat": 54.5975073857845,
    "direction": "CityCentre"
  },
  "54.6238277094117:-5.96138388802174": {
    "name": "Deerpark Road",
    "lon": -5.96138388802174,
    "code": "54.6238277094117:-5.96138388802174",
    "street": "Oldpark Road",
    "lat": 54.6238277094117,
    "direction": "Inward"
  },
  "54.6028324103344:-5.98190312901867": {
    "name": "Springhill Primary School",
    "lon": -5.98190312901867,
    "code": "54.6028324103344:-5.98190312901867",
    "street": "Ballygomartin Road",
    "lat": 54.6028324103344,
    "direction": "Inward"
  },
  "54.5707909993487:-6.00403932412555": {
    "name": "HillHead Crescent",
    "lon": -6.00403932412555,
    "code": "54.5707909993487:-6.00403932412555",
    "street": "Stewartstown Road",
    "lat": 54.5707909993487,
    "direction": "Outward"
  },
  "54.5987308424857:-5.93320479126818": {
    "name": "Queen Street",
    "lon": -5.93320479126818,
    "code": "54.5987308424857:-5.93320479126818",
    "street": "Queen Street",
    "lat": 54.5987308424857,
    "direction": "CityCentre"
  },
  "54.6093373895007:-5.87687980449095": {
    "name": "Sydenham Halt",
    "lon": -5.87687980449095,
    "code": "54.6093373895007:-5.87687980449095",
    "street": "Inverary Drive",
    "lat": 54.6093373895007,
    "direction": "Outward"
  },
  "54.6470212054349:-5.93455003975484": {
    "name": "Antrim Road(Serpentine Road)",
    "lon": -5.93455003975484,
    "code": "54.6470212054349:-5.93455003975484",
    "street": "Antrim Road",
    "lat": 54.6470212054349,
    "direction": "Inward"
  },
  "54.5745792172581:-5.9164561879707": {
    "name": "Ballynafeigh",
    "lon": -5.9164561879707,
    "code": "54.5745792172581:-5.9164561879707",
    "street": "Ormeau Road",
    "lat": 54.5745792172581,
    "direction": "Inward"
  },
  "54.6120135326374:-5.97482319642356": {
    "name": "Forthriver Pass",
    "lon": -5.97482319642356,
    "code": "54.6120135326374:-5.97482319642356",
    "street": "Forthriver Road",
    "lat": 54.6120135326374,
    "direction": "Outward"
  },
  "54.5830075766539:-5.98489455374301": {
    "name": "Gransha",
    "lon": -5.98489455374301,
    "code": "54.5830075766539:-5.98489455374301",
    "street": "Glen Road",
    "lat": 54.5830075766539,
    "direction": "Outward"
  },
  "54.575237631066:-5.95556765778741": {
    "name": "Lisburn Road(Marlborough Park)",
    "lon": -5.95556765778741,
    "code": "54.575237631066:-5.95556765778741",
    "street": "Lisburn Road",
    "lat": 54.575237631066,
    "direction": "Outward"
  },
  "54.5972409852399:-5.88546352723267": {
    "name": "Grampian Avenue",
    "lon": -5.88546352723267,
    "code": "54.5972409852399:-5.88546352723267",
    "street": "Upper Newtownards Road",
    "lat": 54.5972409852399,
    "direction": "Outward"
  },
  "54.5978750302055:-5.88987197874806": {
    "name": "Connswater",
    "lon": -5.88987197874806,
    "code": "54.5978750302055:-5.88987197874806",
    "street": "Newtownards Road",
    "lat": 54.5978750302055,
    "direction": "Outward"
  },
  "54.6206933432339:-5.98453350018699": {
    "name": "Forthriver Parade",
    "lon": -5.98453350018699,
    "code": "54.6206933432339:-5.98453350018699",
    "street": "Forthriver Road",
    "lat": 54.6206933432339,
    "direction": "Outward"
  },
  "54.6296277424819:-5.96807821922058": {
    "name": "Ballysillan Drive",
    "lon": -5.96807821922058,
    "code": "54.6296277424819:-5.96807821922058",
    "street": "Ballysillan Park",
    "lat": 54.6296277424819,
    "direction": "Outward"
  },
  "54.5651109798052:-6.0083061863791": {
    "name": "Blacks Road(Trenchard)",
    "lon": -6.0083061863791,
    "code": "54.5651109798052:-6.0083061863791",
    "street": "Blacks Road",
    "lat": 54.5651109798052,
    "direction": "Other"
  },
  "54.5698255865614:-5.94108584513263": {
    "name": "Stranmillis(Broomhill Park)",
    "lon": -5.94108584513263,
    "code": "54.5698255865614:-5.94108584513263",
    "street": "Stranmillis Road",
    "lat": 54.5698255865614,
    "direction": "Inward"
  },
  "54.5703863935639:-5.91195348848454": {
    "name": "Rosetta(Knockbreda Road)",
    "lon": -5.91195348848454,
    "code": "54.5703863935639:-5.91195348848454",
    "street": "Knockbreda Road",
    "lat": 54.5703863935639,
    "direction": "Outward"
  },
  "54.5838461579218:-5.88660626968189": {
    "name": "Orby Place",
    "lon": -5.88660626968189,
    "code": "54.5838461579218:-5.88660626968189",
    "street": "Castlereagh Road",
    "lat": 54.5838461579218,
    "direction": "Outward"
  },
  "54.6366583346763:-5.93646964981626": {
    "name": "Belfast Castle",
    "lon": -5.93646964981626,
    "code": "54.6366583346763:-5.93646964981626",
    "street": "Antrim Road",
    "lat": 54.6366583346763,
    "direction": "Inward"
  },
  "54.5798792220778:-5.89717534359172": {
    "name": "Bells Bridge",
    "lon": -5.89717534359172,
    "code": "54.5798792220778:-5.89717534359172",
    "street": "Cregagh Road",
    "lat": 54.5798792220778,
    "direction": "Outward"
  },
  "54.6238878252019:-5.97728357147142": {
    "name": "28 Ligoneil Road",
    "lon": -5.97728357147142,
    "code": "54.6238878252019:-5.97728357147142",
    "street": "Ligoniel Road",
    "lat": 54.6238878252019,
    "direction": "Outward"
  },
  "54.6160644632607:-5.95126011972277": {
    "name": "Ardoyne Avenue",
    "lon": -5.95126011972277,
    "code": "54.6160644632607:-5.95126011972277",
    "street": "Oldpark Road",
    "lat": 54.6160644632607,
    "direction": "Inward"
  },
  "54.5979101677631:-5.93039900210171": {
    "name": "Donegal Place",
    "lon": -5.93039900210171,
    "code": "54.5979101677631:-5.93039900210171",
    "street": "Donegall Place",
    "lat": 54.5979101677631,
    "direction": "Outward"
  },
  "54.5923243666357:-5.89928807853955": {
    "name": "John Long's Corner",
    "lon": -5.89928807853955,
    "code": "54.5923243666357:-5.89928807853955",
    "street": "Castlereagh Road",
    "lat": 54.5923243666357,
    "direction": "Outward"
  },
  "54.6083666069075:-5.86868003851405": {
    "name": "Carolhill",
    "lon": -5.86868003851405,
    "code": "54.6083666069075:-5.86868003851405",
    "street": "Hollywood Road",
    "lat": 54.6083666069075,
    "direction": "Outward"
  },
  "54.6105057482776:-5.9727774016948": {
    "name": "Forthriver Road(Ballygomartin)",
    "lon": -5.9727774016948,
    "code": "54.6105057482776:-5.9727774016948",
    "street": "Forthriver Road",
    "lat": 54.6105057482776,
    "direction": "Inward"
  },
  "54.6373125963961:-5.92323916004652": {
    "name": "Donegall Park Avenue",
    "lon": -5.92323916004652,
    "code": "54.6373125963961:-5.92323916004652",
    "street": "Shore Road",
    "lat": 54.6373125963961,
    "direction": "Inward"
  },
  "54.5597147337918:-5.95416478160094": {
    "name": "Malone Road(Malone Hill Park)",
    "lon": -5.95416478160094,
    "code": "54.5597147337918:-5.95416478160094",
    "street": "Malone Road",
    "lat": 54.5597147337918,
    "direction": "Outward"
  },
  "54.5982595824029:-5.88667968148603": {
    "name": "Holywood Arches",
    "lon": -5.88667968148603,
    "code": "54.5982595824029:-5.88667968148603",
    "street": "Hollywood Road",
    "lat": 54.5982595824029,
    "direction": "Inward"
  },
  "54.6132620946501:-5.93229783117431": {
    "name": "Edlingham Street",
    "lon": -5.93229783117431,
    "code": "54.6132620946501:-5.93229783117431",
    "street": "Duncairn Gardens",
    "lat": 54.6132620946501,
    "direction": "Outward"
  },
  "54.6249815703398:-5.98198317033512": {
    "name": "78 Ligoneil Road",
    "lon": -5.98198317033512,
    "code": "54.6249815703398:-5.98198317033512",
    "street": "Ligoniel Road",
    "lat": 54.6249815703398,
    "direction": "Outward"
  },
  "54.6168723727892:-5.95334054454003": {
    "name": "Marrowbone Park",
    "lon": -5.95334054454003,
    "code": "54.6168723727892:-5.95334054454003",
    "street": "Oldpark Road",
    "lat": 54.6168723727892,
    "direction": "Inward"
  },
  "54.6090830778321:-5.94384046182903": {
    "name": "Crumlin Road(Agnes Street)",
    "lon": -5.94384046182903,
    "code": "54.6090830778321:-5.94384046182903",
    "street": "Crumlin Road",
    "lat": 54.6090830778321,
    "direction": "Inward"
  },
  "54.6047233620041:-5.95698391660179": {
    "name": "Glenwood Street",
    "lon": -5.95698391660179,
    "code": "54.6047233620041:-5.95698391660179",
    "street": "Shankill Road",
    "lat": 54.6047233620041,
    "direction": "Inward"
  },
  "54.5704250362336:-6.00582013366092": {
    "name": "Suffolk Ave",
    "lon": -6.00582013366092,
    "code": "54.5704250362336:-6.00582013366092",
    "street": "Stewartstown Road",
    "lat": 54.5704250362336,
    "direction": "Inward"
  },
  "54.608992089305:-5.93638415311615": {
    "name": "Lincoln Avenue",
    "lon": -5.93638415311615,
    "code": "54.608992089305:-5.93638415311615",
    "street": "Antrim Road",
    "lat": 54.608992089305,
    "direction": "Outward"
  },
  "54.5944918396409:-5.84172238115801": {
    "name": "Stormont",
    "lon": -5.84172238115801,
    "code": "54.5944918396409:-5.84172238115801",
    "street": "Upper Newtownards Road",
    "lat": 54.5944918396409,
    "direction": "Inward"
  },
  "54.5963793121193:-5.90721877066212": {
    "name": "Madrid Street",
    "lon": -5.90721877066212,
    "code": "54.5963793121193:-5.90721877066212",
    "street": "Mountpottinger Road",
    "lat": 54.5963793121193,
    "direction": "Outward"
  },
  "54.6082288957693:-5.94010672471188": {
    "name": "Crumlin Road(Mater Hospital)",
    "lon": -5.94010672471188,
    "code": "54.6082288957693:-5.94010672471188",
    "street": "Crumlin Road",
    "lat": 54.6082288957693,
    "direction": "Outward"
  },
  "54.6243652553001:-5.98004712905212": {
    "name": "Ligoniel Park",
    "lon": -5.98004712905212,
    "code": "54.6243652553001:-5.98004712905212",
    "street": "Ligoniel Road",
    "lat": 54.6243652553001,
    "direction": "Inward"
  },
  "54.6201284265509:-5.95195385733977": {
    "name": "Kelvin Parade",
    "lon": -5.95195385733977,
    "code": "54.6201284265509:-5.95195385733977",
    "street": "Cliftonville Road",
    "lat": 54.6201284265509,
    "direction": "Inward"
  },
  "54.6132498901495:-5.9767587664567": {
    "name": "Forthriver Scout Hall",
    "lon": -5.9767587664567,
    "code": "54.6132498901495:-5.9767587664567",
    "street": "Forthriver Road",
    "lat": 54.6132498901495,
    "direction": "Outward"
  },
  "54.5930100384321:-5.95982959705584": {
    "name": "St. Marys College",
    "lon": -5.95982959705584,
    "code": "54.5930100384321:-5.95982959705584",
    "street": "Falls Road",
    "lat": 54.5930100384321,
    "direction": "Inward"
  },
  "54.5566441392119:-5.98103189714486": {
    "name": "Finaghy Road South(De Beere Court)",
    "lon": -5.98103189714486,
    "code": "54.5566441392119:-5.98103189714486",
    "street": "Finaghy Road South",
    "lat": 54.5566441392119,
    "direction": "Outward"
  },
  "54.5948158610317:-5.83672261272558": {
    "name": "Stormont Court",
    "lon": -5.83672261272558,
    "code": "54.5948158610317:-5.83672261272558",
    "street": "Upper Newtownards Road",
    "lat": 54.5948158610317,
    "direction": "Outward"
  },
  "54.6563614268834:-5.93325472129545": {
    "name": "Throne Centre",
    "lon": -5.93325472129545,
    "code": "54.6563614268834:-5.93325472129545",
    "street": "Whitewell Road",
    "lat": 54.6563614268834,
    "direction": "Inward"
  },
  "54.60566948311:-5.9592736497411": {
    "name": "Mayo Street",
    "lon": -5.9592736497411,
    "code": "54.60566948311:-5.9592736497411",
    "street": "Shankill Road",
    "lat": 54.60566948311,
    "direction": "Inward"
  },
  "54.5808772969905:-5.99295039632425": {
    "name": "Glen Road(St.Theresa's)",
    "lon": -5.99295039632425,
    "code": "54.5808772969905:-5.99295039632425",
    "street": "Glen Road",
    "lat": 54.5808772969905,
    "direction": "Outward"
  },
  "54.591398525591:-5.93264791510278": {
    "name": "Dublin Road",
    "lon": -5.93264791510278,
    "code": "54.591398525591:-5.93264791510278",
    "street": "Dublin Road",
    "lat": 54.591398525591,
    "direction": "Outward"
  },
  "54.555006451957:-5.96747846516691": {
    "name": "Upper Malone Road(Dub Lane)",
    "lon": -5.96747846516691,
    "code": "54.555006451957:-5.96747846516691",
    "street": "Upper Malone Road",
    "lat": 54.555006451957,
    "direction": "Outward"
  },
  "54.6391658805522:-5.93651299306113": {
    "name": "Donegall Park Avenue",
    "lon": -5.93651299306113,
    "code": "54.6391658805522:-5.93651299306113",
    "street": "Antrim Road",
    "lat": 54.6391658805522,
    "direction": "Outward"
  },
  "54.6073064836257:-5.93606702570219": {
    "name": "Carlisle Circus(Clifton Street)",
    "lon": -5.93606702570219,
    "code": "54.6073064836257:-5.93606702570219",
    "street": "Clifton Street",
    "lat": 54.6073064836257,
    "direction": "Inward"
  },
  "54.6185183065024:-5.85486485229715": {
    "name": "Knocknagoney Primary",
    "lon": -5.85486485229715,
    "code": "54.6185183065024:-5.85486485229715",
    "street": "KnocknagoneyRoad",
    "lat": 54.6185183065024,
    "direction": "Outward"
  },
  "54.6275466424809:-5.98602184729364": {
    "name": "190 Ligoniel Road",
    "lon": -5.98602184729364,
    "code": "54.6275466424809:-5.98602184729364",
    "street": "Ligoniel Road",
    "lat": 54.6275466424809,
    "direction": "Inward"
  },
  "54.6243239760232:-5.97006150878867": {
    "name": "Ballysillan Leisure Centre",
    "lon": -5.97006150878867,
    "code": "54.6243239760232:-5.97006150878867",
    "street": "Ballysillan Road",
    "lat": 54.6243239760232,
    "direction": "Outward"
  },
  "54.5678314310266:-6.01036927578947": {
    "name": "Stewartstown Road(Woodbourne)",
    "lon": -6.01036927578947,
    "code": "54.5678314310266:-6.01036927578947",
    "street": "Stewartstown Road",
    "lat": 54.5678314310266,
    "direction": "Outward"
  },
  "54.5825482291789:-5.97944125296644": {
    "name": "Milltown Cemetery",
    "lon": -5.97944125296644,
    "code": "54.5825482291789:-5.97944125296644",
    "street": "Falls Road",
    "lat": 54.5825482291789,
    "direction": "Inward"
  },
  "54.6493254806382:-5.92428429477946": {
    "name": "Serpentine Road",
    "lon": -5.92428429477946,
    "code": "54.6493254806382:-5.92428429477946",
    "street": "Whitewell Road",
    "lat": 54.6493254806382,
    "direction": "Outward"
  },
  "54.5850276486837:-5.92684457111135": {
    "name": "Dudley Street",
    "lon": -5.92684457111135,
    "code": "54.5850276486837:-5.92684457111135",
    "street": "University Avenue",
    "lat": 54.5850276486837,
    "direction": "Outward"
  },
  "54.5702603524242:-5.93812569481465": {
    "name": "Richmond Pk",
    "lon": -5.93812569481465,
    "code": "54.5702603524242:-5.93812569481465",
    "street": "Stranmillis Road",
    "lat": 54.5702603524242,
    "direction": "Inward"
  },
  "54.619290516919:-5.93858774128117": {
    "name": "Richmond Lane",
    "lon": -5.93858774128117,
    "code": "54.619290516919:-5.93858774128117",
    "street": "Antrim Road",
    "lat": 54.619290516919,
    "direction": "Outward"
  },
  "54.5838434114545:-5.89882743557163": {
    "name": "Glendower Street",
    "lon": -5.89882743557163,
    "code": "54.5838434114545:-5.89882743557163",
    "street": "Cregagh Road",
    "lat": 54.5838434114545,
    "direction": "Inward"
  },
  "54.6526287835998:-5.93513327007282": {
    "name": "Thronemount",
    "lon": -5.93513327007282,
    "code": "54.6526287835998:-5.93513327007282",
    "street": "Antrim Road",
    "lat": 54.6526287835998,
    "direction": "Inward"
  },
  "54.5936780834499:-5.90222019948735": {
    "name": "Paxton Street",
    "lon": -5.90222019948735,
    "code": "54.5936780834499:-5.90222019948735",
    "street": "Castlereagh Street",
    "lat": 54.5936780834499,
    "direction": "Inward"
  },
  "54.6043275211759:-5.95429523485641": {
    "name": "Tennent Street",
    "lon": -5.95429523485641,
    "code": "54.6043275211759:-5.95429523485641",
    "street": "Shankill Road",
    "lat": 54.6043275211759,
    "direction": "Outward"
  },
  "54.5562970565888:-5.99202488087559": {
    "name": "Blacks Road",
    "lon": -5.99202488087559,
    "code": "54.5562970565888:-5.99202488087559",
    "street": "Upper Lisburn Road",
    "lat": 54.5562970565888,
    "direction": "Inward"
  },
  "54.5665051288196:-5.9899303047188": {
    "name": "Finaghy Road North (Orchardville)",
    "lon": -5.9899303047188,
    "code": "54.5665051288196:-5.9899303047188",
    "street": "Finaghy Road North",
    "lat": 54.5665051288196,
    "direction": "Outward"
  },
  "54.6354970994809:-5.93686924144217": {
    "name": "Strathmore Park",
    "lon": -5.93686924144217,
    "code": "54.6354970994809:-5.93686924144217",
    "street": "Antrim Road",
    "lat": 54.6354970994809,
    "direction": "Outward"
  },
  "54.6540461162734:-5.93657999620897": {
    "name": "Kincraig Park",
    "lon": -5.93657999620897,
    "code": "54.6540461162734:-5.93657999620897",
    "street": "Antrim Road",
    "lat": 54.6540461162734,
    "direction": "Outward"
  },
  "54.5553640605486:-5.97970388700176": {
    "name": "Benmore Walk",
    "lon": -5.97970388700176,
    "code": "54.5553640605486:-5.97970388700176",
    "street": "Finaghy Road South",
    "lat": 54.5553640605486,
    "direction": "Inward"
  },
  "54.6109692164372:-5.94803323260076": {
    "name": "Oldpark Library",
    "lon": -5.94803323260076,
    "code": "54.6109692164372:-5.94803323260076",
    "street": "Oldpark Road",
    "lat": 54.6109692164372,
    "direction": "Outward"
  },
  "54.5637976171446:-5.97950318149885": {
    "name": "Lisburn Road(Scilly Park)",
    "lon": -5.97950318149885,
    "code": "54.5637976171446:-5.97950318149885",
    "street": "Upper Lisburn Road",
    "lat": 54.5637976171446,
    "direction": "Outward"
  },
  "54.5599065051152:-5.9875494916393": {
    "name": "Lowe Memorial Church",
    "lon": -5.9875494916393,
    "code": "54.5599065051152:-5.9875494916393",
    "street": "Upper Lisburn Road",
    "lat": 54.5599065051152,
    "direction": "Inward"
  },
  "54.5950791347062:-5.86723894422576": {
    "name": "Hillview Avenue",
    "lon": -5.86723894422576,
    "code": "54.5950791347062:-5.86723894422576",
    "street": "Upper Newtownards Road",
    "lat": 54.5950791347062,
    "direction": "Inward"
  },
  "54.6600389207411:-5.94343642709817": {
    "name": "Floral Park",
    "lon": -5.94343642709817,
    "code": "54.6600389207411:-5.94343642709817",
    "street": "Antrim Road",
    "lat": 54.6600389207411,
    "direction": "Inward"
  },
  "54.5640036752252:-5.95169249279062": {
    "name": "Malone Road(Balmoral Ave)",
    "lon": -5.95169249279062,
    "code": "54.5640036752252:-5.95169249279062",
    "street": "Malone Road",
    "lat": 54.5640036752252,
    "direction": "Inward"
  },
  "54.5923063772152:-5.89825232456731": {
    "name": "Trillick Street",
    "lon": -5.89825232456731,
    "code": "54.5923063772152:-5.89825232456731",
    "street": "Beersbridge Road",
    "lat": 54.5923063772152,
    "direction": "Inward"
  },
  "54.5688288928105:-5.91385787582512": {
    "name": "Annadale Avenue",
    "lon": -5.91385787582512,
    "code": "54.5688288928105:-5.91385787582512",
    "street": "Ormeau Road",
    "lat": 54.5688288928105,
    "direction": "Inward"
  },
  "54.5685880835038:-6.00884791186227": {
    "name": "Stewartstown Road(Doon Road)",
    "lon": -6.00884791186227,
    "code": "54.5685880835038:-6.00884791186227",
    "street": "Stewartstown Road",
    "lat": 54.5685880835038,
    "direction": "Other"
  },
  "54.5985931986595:-5.95046648806875": {
    "name": "Conway Street",
    "lon": -5.95046648806875,
    "code": "54.5985931986595:-5.95046648806875",
    "street": "Falls Road",
    "lat": 54.5985931986595,
    "direction": "Outward"
  },
  "54.6407104891592:-5.93646570964446": {
    "name": "Downview Avenue",
    "lon": -5.93646570964446,
    "code": "54.6407104891592:-5.93646570964446",
    "street": "Antrim Road",
    "lat": 54.6407104891592,
    "direction": "Outward"
  },
  "54.5889404205591:-5.89638346812654": {
    "name": "Ardgowan Street",
    "lon": -5.89638346812654,
    "code": "54.5889404205591:-5.89638346812654",
    "street": "Castlereagh Road",
    "lat": 54.5889404205591,
    "direction": "Inward"
  },
  "54.6332464417691:-5.93766471790953": {
    "name": "North Circular Road",
    "lon": -5.93766471790953,
    "code": "54.6332464417691:-5.93766471790953",
    "street": "Antrim Road",
    "lat": 54.6332464417691,
    "direction": "Outward"
  },
  "54.6588252748917:-5.94128154653801": {
    "name": "Bellevue Park",
    "lon": -5.94128154653801,
    "code": "54.6588252748917:-5.94128154653801",
    "street": "Antrim Road",
    "lat": 54.6588252748917,
    "direction": "Inward"
  },
  "54.5947483110355:-5.85868370904818": {
    "name": "Ormiston Crescent",
    "lon": -5.85868370904818,
    "code": "54.5947483110355:-5.85868370904818",
    "street": "Upper Newtownards Road",
    "lat": 54.5947483110355,
    "direction": "Inward"
  },
  "54.6130540835376:-5.96401256338191": {
    "name": "Woodvale Road (Twaddell)",
    "lon": -5.96401256338191,
    "code": "54.6130540835376:-5.96401256338191",
    "street": "Woodvale Road",
    "lat": 54.6130540835376,
    "direction": "Inward"
  },
  "54.5783817632766:-6.00612745469081": {
    "name": "Rosnareen",
    "lon": -6.00612745469081,
    "code": "54.5783817632766:-6.00612745469081",
    "street": "Glen Road",
    "lat": 54.5783817632766,
    "direction": "Inward"
  },
  "54.5766298124439:-5.9806776791723": {
    "name": "Fruithill Park",
    "lon": -5.9806776791723,
    "code": "54.5766298124439:-5.9806776791723",
    "street": "Andersonstown Road",
    "lat": 54.5766298124439,
    "direction": "Outward"
  },
  "54.6082070158295:-5.93934937169572": {
    "name": "Crumlin Road(Mater Hospital)",
    "lon": -5.93934937169572,
    "code": "54.6082070158295:-5.93934937169572",
    "street": "Crumlin Road",
    "lat": 54.6082070158295,
    "direction": "Inward"
  },
  "54.5864001359028:-5.93986287463268": {
    "name": "Lisburn Road(City Hospital)",
    "lon": -5.93986287463268,
    "code": "54.5864001359028:-5.93986287463268",
    "street": "Lisburn Road",
    "lat": 54.5864001359028,
    "direction": "Inward"
  },
  "54.6271861028763:-5.92373986729735": {
    "name": "Shore Road (Safeway)",
    "lon": -5.92373986729735,
    "code": "54.6271861028763:-5.92373986729735",
    "street": "Shore Road",
    "lat": 54.6271861028763,
    "direction": "Outward"
  },
  "54.5957728386137:-5.87398039410046": {
    "name": "North Road",
    "lon": -5.87398039410046,
    "code": "54.5957728386137:-5.87398039410046",
    "street": "Upper Newtownards Road",
    "lat": 54.5957728386137,
    "direction": "Outward"
  },
  "54.5713453925583:-5.90921355837573": {
    "name": "Knock Eden",
    "lon": -5.90921355837573,
    "code": "54.5713453925583:-5.90921355837573",
    "street": "Knockbreda Road",
    "lat": 54.5713453925583,
    "direction": "Outward"
  },
  "54.5969173639772:-5.90819701129577": {
    "name": "Mountpottinger Road",
    "lon": -5.90819701129577,
    "code": "54.5969173639772:-5.90819701129577",
    "street": "Mountpottinger Road",
    "lat": 54.5969173639772,
    "direction": "Inward"
  },
  "54.5905891846635:-5.89767548256985": {
    "name": "Clara Street",
    "lon": -5.89767548256985,
    "code": "54.5905891846635:-5.89767548256985",
    "street": "Castlereagh Road",
    "lat": 54.5905891846635,
    "direction": "Outward"
  },
  "54.5848535571411:-5.9318966076784": {
    "name": "College Green",
    "lon": -5.9318966076784,
    "code": "54.5848535571411:-5.9318966076784",
    "street": "Botanic Avenue",
    "lat": 54.5848535571411,
    "direction": "Outward"
  },
  "54.610065076031:-5.86665628615793": {
    "name": "Ashfield Boys",
    "lon": -5.86665628615793,
    "code": "54.610065076031:-5.86665628615793",
    "street": "Hollywood Road",
    "lat": 54.610065076031,
    "direction": "Outward"
  },
  "54.6090357833154:-5.94422982306388": {
    "name": "Crumlin Road(Agnes Street)",
    "lon": -5.94422982306388,
    "code": "54.6090357833154:-5.94422982306388",
    "street": "Crumlin Road",
    "lat": 54.6090357833154,
    "direction": "Outward"
  },
  "54.6126285018818:-5.96381709339586": {
    "name": "Woodvale Road",
    "lon": -5.96381709339586,
    "code": "54.6126285018818:-5.96381709339586",
    "street": "Woodvale Road",
    "lat": 54.6126285018818,
    "direction": "Outward"
  },
  "54.5830240200539:-5.98534234413055": {
    "name": "Gransha Shops",
    "lon": -5.98534234413055,
    "code": "54.5830240200539:-5.98534234413055",
    "street": "Glen Road",
    "lat": 54.5830240200539,
    "direction": "Inward"
  },
  "54.5718960584223:-5.99479922081003": {
    "name": "St.Michaels",
    "lon": -5.99479922081003,
    "code": "54.5718960584223:-5.99479922081003",
    "street": "Finaghy Road North",
    "lat": 54.5718960584223,
    "direction": "Inward"
  },
  "54.5719941247895:-5.96089537162959": {
    "name": "Osbourne Park",
    "lon": -5.96089537162959,
    "code": "54.5719941247895:-5.96089537162959",
    "street": "Lisburn Road",
    "lat": 54.5719941247895,
    "direction": "Inward"
  },
  "54.5686372051965:-5.992794357753": {
    "name": "Ladybrook Shops",
    "lon": -5.992794357753,
    "code": "54.5686372051965:-5.992794357753",
    "street": "Ladybrook Park",
    "lat": 54.5686372051965,
    "direction": "Inward"
  },
  "54.5944860307822:-5.82784261917806": {
    "name": "Rosepark",
    "lon": -5.82784261917806,
    "code": "54.5944860307822:-5.82784261917806",
    "street": "Upper Newtownards Road",
    "lat": 54.5944860307822,
    "direction": "Inward"
  },
  "54.5948203117673:-5.90435873659204": {
    "name": "Castlereagh Street(Albertbridge Road)",
    "lon": -5.90435873659204,
    "code": "54.5948203117673:-5.90435873659204",
    "street": "Castlereagh Street",
    "lat": 54.5948203117673,
    "direction": "Outward"
  },
  "54.5835420665744:-5.89854903028395": {
    "name": "Courtney Hall",
    "lon": -5.89854903028395,
    "code": "54.5835420665744:-5.89854903028395",
    "street": "Cregagh Road",
    "lat": 54.5835420665744,
    "direction": "Outward"
  },
  "54.5954314750735:-5.870918837592": {
    "name": "Castleview Terrace",
    "lon": -5.870918837592,
    "code": "54.5954314750735:-5.870918837592",
    "street": "Upper Newtownards Road",
    "lat": 54.5954314750735,
    "direction": "Outward"
  },
  "54.5760682787457:-5.94414269917734": {
    "name": "Malone Road(Beechlands)",
    "lon": -5.94414269917734,
    "code": "54.5760682787457:-5.94414269917734",
    "street": "Malone Road",
    "lat": 54.5760682787457,
    "direction": "Outward"
  },
  "54.6072259997816:-5.87432743340363": {
    "name": "Palmerston Road(Station Road)",
    "lon": -5.87432743340363,
    "code": "54.6072259997816:-5.87432743340363",
    "street": "Palmerston Road",
    "lat": 54.6072259997816,
    "direction": "Inward"
  },
  "54.5870210120221:-5.89348107818577": {
    "name": "Loopland Park",
    "lon": -5.89348107818577,
    "code": "54.5870210120221:-5.89348107818577",
    "street": "Castlereagh Road",
    "lat": 54.5870210120221,
    "direction": "Outward"
  },
  "54.648753766292:-5.92343027452991": {
    "name": "Serpentine Road",
    "lon": -5.92343027452991,
    "code": "54.648753766292:-5.92343027452991",
    "street": "Whitewell Road",
    "lat": 54.648753766292,
    "direction": "Inward"
  },
  "54.6042129819424:-5.95230442412961": {
    "name": "Berlin Street",
    "lon": -5.95230442412961,
    "code": "54.6042129819424:-5.95230442412961",
    "street": "Shankill Road",
    "lat": 54.6042129819424,
    "direction": "Outward"
  },
  "54.5732160403926:-5.99041956996247": {
    "name": "Andersonstown Road (Slievegallion Drive)",
    "lon": -5.99041956996247,
    "code": "54.5732160403926:-5.99041956996247",
    "street": "Andersonstown Road",
    "lat": 54.5732160403926,
    "direction": "Outward"
  },
  "54.6473494021009:-5.93482776908815": {
    "name": "Antrim Road(Serpentine Road)",
    "lon": -5.93482776908815,
    "code": "54.6473494021009:-5.93482776908815",
    "street": "Antrim Road",
    "lat": 54.6473494021009,
    "direction": "Outward"
  },
  "54.6069206728428:-5.96207449470346": {
    "name": "Woodvale Avenue",
    "lon": -5.96207449470346,
    "code": "54.6069206728428:-5.96207449470346",
    "street": "Woodvale Road",
    "lat": 54.6069206728428,
    "direction": "Outward"
  },
  "54.566113125511:-6.01023651843699": {
    "name": "Blacks Road(Ringford Park)",
    "lon": -6.01023651843699,
    "code": "54.566113125511:-6.01023651843699",
    "street": "Blacks Road",
    "lat": 54.566113125511,
    "direction": "Other"
  },
  "54.6420595903417:-5.92236191495101": {
    "name": "Shore Road(Grays Lane)",
    "lon": -5.92236191495101,
    "code": "54.6420595903417:-5.92236191495101",
    "street": "Shore Road",
    "lat": 54.6420595903417,
    "direction": "Inward"
  },
  "54.6016614633088:-5.98172893031793": {
    "name": "Springmartin Road",
    "lon": -5.98172893031793,
    "code": "54.6016614633088:-5.98172893031793",
    "street": "Springmartin Road",
    "lat": 54.6016614633088,
    "direction": "Outward"
  },
  "54.6233458355072:-5.97227804967131": {
    "name": "Bilston Road",
    "lon": -5.97227804967131,
    "code": "54.6233458355072:-5.97227804967131",
    "street": "Bilston Road",
    "lat": 54.6233458355072,
    "direction": "Outward"
  },
  "54.6205694794206:-5.9754973716517": {
    "name": "Glenside Park",
    "lon": -5.9754973716517,
    "code": "54.6205694794206:-5.9754973716517",
    "street": "Crumlin Road",
    "lat": 54.6205694794206,
    "direction": "Outward"
  },
  "54.5737226538282:-6.02169671284265": {
    "name": "Donegal Celtic",
    "lon": -6.02169671284265,
    "code": "54.5737226538282:-6.02169671284265",
    "street": "Suffolk Road",
    "lat": 54.5737226538282,
    "direction": "Inward"
  },
  "54.6086329457707:-5.87002827936424": {
    "name": "Inverary Avenue",
    "lon": -5.87002827936424,
    "code": "54.6086329457707:-5.87002827936424",
    "street": "Inverary Avenue",
    "lat": 54.6086329457707,
    "direction": "Inward"
  },
  "54.599038873068:-5.88499890626616": {
    "name": "Connsbrook Avenue",
    "lon": -5.88499890626616,
    "code": "54.599038873068:-5.88499890626616",
    "street": "Connsbrook Avenue",
    "lat": 54.599038873068,
    "direction": "Inward"
  },
  "54.5953097685982:-5.90201249635527": {
    "name": "Templemore Avenue",
    "lon": -5.90201249635527,
    "code": "54.5953097685982:-5.90201249635527",
    "street": "Albert Bridge Road",
    "lat": 54.5953097685982,
    "direction": "Inward"
  },
  "54.6394436308329:-5.92333186921628": {
    "name": "Shore Crescent",
    "lon": -5.92333186921628,
    "code": "54.6394436308329:-5.92333186921628",
    "street": "Shore Road",
    "lat": 54.6394436308329,
    "direction": "Outward"
  },
  "54.5731746442854:-5.9330450284587": {
    "name": "Stranmillis College",
    "lon": -5.9330450284587,
    "code": "54.5731746442854:-5.9330450284587",
    "street": "Stranmillis Road",
    "lat": 54.5731746442854,
    "direction": "Outward"
  },
  "54.6517585303363:-5.92732128151845": {
    "name": "Lower WhitewelL(White City)",
    "lon": -5.92732128151845,
    "code": "54.6517585303363:-5.92732128151845",
    "street": "Whitewell Road",
    "lat": 54.6517585303363,
    "direction": "Inward"
  },
  "54.5943616494036:-5.85005417082656": {
    "name": "Hawthorden Court",
    "lon": -5.85005417082656,
    "code": "54.5943616494036:-5.85005417082656",
    "street": "Upper Newtownards Road",
    "lat": 54.5943616494036,
    "direction": "Inward"
  },
  "54.6040809829041:-5.94822508660365": {
    "name": "Shankill Road(Co-Op)",
    "lon": -5.94822508660365,
    "code": "54.6040809829041:-5.94822508660365",
    "street": "Shankill Road",
    "lat": 54.6040809829041,
    "direction": "Inward"
  },
  "54.5944781716247:-5.95684716057663": {
    "name": "Falls Road(Royal Hospitals)",
    "lon": -5.95684716057663,
    "code": "54.5944781716247:-5.95684716057663",
    "street": "Falls Road",
    "lat": 54.5944781716247,
    "direction": "Inward"
  },
  "54.5591681626255:-5.97292976706872": {
    "name": "Balmoral(Finnis Drive)",
    "lon": -5.97292976706872,
    "code": "54.5591681626255:-5.97292976706872",
    "street": "Finnis Drive",
    "lat": 54.5591681626255,
    "direction": "Terminal"
  },
  "54.5685004848895:-5.94823502147047": {
    "name": "Malone Road(Osbourne)",
    "lon": -5.94823502147047,
    "code": "54.5685004848895:-5.94823502147047",
    "street": "Malone Road",
    "lat": 54.5685004848895,
    "direction": "Outward"
  },
  "54.5960534807354:-5.87665830174906": {
    "name": "North Road",
    "lon": -5.87665830174906,
    "code": "54.5960534807354:-5.87665830174906",
    "street": "Upper Newtownards Road",
    "lat": 54.5960534807354,
    "direction": "Inward"
  },
  "54.5910230670113:-5.93433794253656": {
    "name": "Albion Street",
    "lon": -5.93433794253656,
    "code": "54.5910230670113:-5.93433794253656",
    "street": "Great Victoria Street",
    "lat": 54.5910230670113,
    "direction": "Inward"
  },
  "54.5823543797481:-5.9376075447506": {
    "name": "Malone Road(Methody)",
    "lon": -5.9376075447506,
    "code": "54.5823543797481:-5.9376075447506",
    "street": "Malone Road",
    "lat": 54.5823543797481,
    "direction": "Inward"
  },
  "54.6068040075516:-5.93137160001879": {
    "name": "Great George's Street",
    "lon": -5.93137160001879,
    "code": "54.6068040075516:-5.93137160001879",
    "street": "North Queen Street",
    "lat": 54.6068040075516,
    "direction": "Outward"
  },
  "54.5886551717285:-5.93510761841409": {
    "name": "Bradbury Place",
    "lon": -5.93510761841409,
    "code": "54.5886551717285:-5.93510761841409",
    "street": "Bradbury Place",
    "lat": 54.5886551717285,
    "direction": "Inward"
  },
  "54.6241120163856:-5.97940932656084": {
    "name": "Ligoneil Park",
    "lon": -5.97940932656084,
    "code": "54.6241120163856:-5.97940932656084",
    "street": "Ligoniel Road",
    "lat": 54.6241120163856,
    "direction": "Outward"
  },
  "54.6253775823209:-5.96378397801258": {
    "name": "Joanmount Park",
    "lon": -5.96378397801258,
    "code": "54.6253775823209:-5.96378397801258",
    "street": "Oldpark Road",
    "lat": 54.6253775823209,
    "direction": "Outward"
  },
  "54.6056045679714:-5.97842276731526": {
    "name": "Ballymagarry Lane",
    "lon": -5.97842276731526,
    "code": "54.6056045679714:-5.97842276731526",
    "street": "Ballygomartin Road",
    "lat": 54.6056045679714,
    "direction": "Outward"
  },
  "54.600424343165:-5.94241992472091": {
    "name": "Divis Tower",
    "lon": -5.94241992472091,
    "code": "54.600424343165:-5.94241992472091",
    "street": "Divis Street",
    "lat": 54.600424343165,
    "direction": "Inward"
  },
  "54.5740282477935:-5.95737584928663": {
    "name": "Cranmore Avenue",
    "lon": -5.95737584928663,
    "code": "54.5740282477935:-5.95737584928663",
    "street": "Lisburn Road",
    "lat": 54.5740282477935,
    "direction": "Outward"
  },
  "54.6297784487303:-5.96314588203054": {
    "name": "Ballysillan Road",
    "lon": -5.96314588203054,
    "code": "54.6297784487303:-5.96314588203054",
    "street": "Ballysillan Road",
    "lat": 54.6297784487303,
    "direction": "Outward"
  },
  "54.5724570348555:-6.00046278947341": {
    "name": "St. Genieves",
    "lon": -6.00046278947341,
    "code": "54.5724570348555:-6.00046278947341",
    "street": "Stewartstown Road",
    "lat": 54.5724570348555,
    "direction": "Inward"
  },
  "54.5923945334818:-5.96116008215649": {
    "name": "Broadway",
    "lon": -5.96116008215649,
    "code": "54.5923945334818:-5.96116008215649",
    "street": "Falls Road",
    "lat": 54.5923945334818,
    "direction": "Outward"
  },
  "54.6152356295624:-5.9242402570096": {
    "name": "Mountcollyer",
    "lon": -5.9242402570096,
    "code": "54.6152356295624:-5.9242402570096",
    "street": "York Road",
    "lat": 54.6152356295624,
    "direction": "Inward"
  },
  "54.5997744651623:-5.91704181792188": {
    "name": "Bridge End",
    "lon": -5.91704181792188,
    "code": "54.5997744651623:-5.91704181792188",
    "street": "Bridge End",
    "lat": 54.5997744651623,
    "direction": "Inward"
  },
  "54.5989058607899:-5.8979896377471": {
    "name": "Dee Street",
    "lon": -5.8979896377471,
    "code": "54.5989058607899:-5.8979896377471",
    "street": "Newtownards Road",
    "lat": 54.5989058607899,
    "direction": "Outward"
  },
  "54.6283702924487:-5.96649938197102": {
    "name": "Churchview",
    "lon": -5.96649938197102,
    "code": "54.6283702924487:-5.96649938197102",
    "street": "Ballysillan Park",
    "lat": 54.6283702924487,
    "direction": "Outward"
  },
  "54.5924602227843:-5.93431159335456": {
    "name": "Hope Street",
    "lon": -5.93431159335456,
    "code": "54.5924602227843:-5.93431159335456",
    "street": "Great Victoria Street",
    "lat": 54.5924602227843,
    "direction": "Inward"
  },
  "54.5943337950786:-5.84798215323691": {
    "name": "Cabin Hill",
    "lon": -5.84798215323691,
    "code": "54.5943337950786:-5.84798215323691",
    "street": "Upper Newtownards Road",
    "lat": 54.5943337950786,
    "direction": "Inward"
  },
  "54.6187367578345:-5.85705194269579": {
    "name": "Knocknagoey Primary",
    "lon": -5.85705194269579,
    "code": "54.6187367578345:-5.85705194269579",
    "street": "KnocknagoneyRoad",
    "lat": 54.6187367578345,
    "direction": "Inward"
  },
  "54.556956348683:-5.96374852984315": {
    "name": "Upper Malone Road(Malton Drive)",
    "lon": -5.96374852984315,
    "code": "54.556956348683:-5.96374852984315",
    "street": "Upper Malone Road",
    "lat": 54.556956348683,
    "direction": "Inward"
  },
  "54.5973936072751:-5.88751376486278": {
    "name": "Holywood Arches",
    "lon": -5.88751376486278,
    "code": "54.5973936072751:-5.88751376486278",
    "street": "Upper Newtownards Road",
    "lat": 54.5973936072751,
    "direction": "Inward"
  },
  "54.6145279238895:-5.96616822411382": {
    "name": "Ardoyne Shops",
    "lon": -5.96616822411382,
    "code": "54.6145279238895:-5.96616822411382",
    "street": "Crumlin Road",
    "lat": 54.6145279238895,
    "direction": "Outward"
  },
  "54.5754347064843:-6.00449279481664": {
    "name": "Shaws Road(Hillhead Cottages)",
    "lon": -6.00449279481664,
    "code": "54.5754347064843:-6.00449279481664",
    "street": "Shaws Road",
    "lat": 54.5754347064843,
    "direction": "Outward"
  },
  "54.5756073220776:-6.00460808638474": {
    "name": "Shaws Road(Hillhead Cottages)",
    "lon": -6.00460808638474,
    "code": "54.5756073220776:-6.00460808638474",
    "street": "Shaws Road",
    "lat": 54.5756073220776,
    "direction": "Inward"
  },
  "54.5856462345557:-5.97342470407589": {
    "name": "Rossa House",
    "lon": -5.97342470407589,
    "code": "54.5856462345557:-5.97342470407589",
    "street": "Falls Road",
    "lat": 54.5856462345557,
    "direction": "Outward"
  },
  "54.5772202345205:-5.93370633128701": {
    "name": "Ridgeway Street",
    "lon": -5.93370633128701,
    "code": "54.5772202345205:-5.93370633128701",
    "street": "Stranmillis Road",
    "lat": 54.5772202345205,
    "direction": "Inward"
  },
  "54.597778641965:-5.89362190072858": {
    "name": "Bloomfield Commercial Centre",
    "lon": -5.89362190072858,
    "code": "54.597778641965:-5.89362190072858",
    "street": "Albert Bridge Road",
    "lat": 54.597778641965,
    "direction": "Outward"
  },
  "54.6120803478576:-5.9236269081567": {
    "name": "York Street(St Pauls)",
    "lon": -5.9236269081567,
    "code": "54.6120803478576:-5.9236269081567",
    "street": "York Street",
    "lat": 54.6120803478576,
    "direction": "Outward"
  },
  "54.6179765430449:-5.92374456894083": {
    "name": "Grove Baths",
    "lon": -5.92374456894083,
    "code": "54.6179765430449:-5.92374456894083",
    "street": "York Road",
    "lat": 54.6179765430449,
    "direction": "Outward"
  },
  "54.6352459944083:-5.92323610678135": {
    "name": "Loughside",
    "lon": -5.92323610678135,
    "code": "54.6352459944083:-5.92323610678135",
    "street": "Shore Road",
    "lat": 54.6352459944083,
    "direction": "Inward"
  },
  "54.582607095466:-5.8840870782221": {
    "name": "Orangefield Cres.",
    "lon": -5.8840870782221,
    "code": "54.582607095466:-5.8840870782221",
    "street": "Castlereagh Road",
    "lat": 54.582607095466,
    "direction": "Inward"
  },
  "54.5854406510055:-5.92368314840987": {
    "name": "University Avenue",
    "lon": -5.92368314840987,
    "code": "54.5854406510055:-5.92368314840987",
    "street": "University Avenue",
    "lat": 54.5854406510055,
    "direction": "Outward"
  },
  "54.6071228949783:-5.87459594389993": {
    "name": "Palmerston Road(Station Road)",
    "lon": -5.87459594389993,
    "code": "54.6071228949783:-5.87459594389993",
    "street": "Palmerston Road",
    "lat": 54.6071228949783,
    "direction": "Outward"
  },
  "54.5640872619714:-6.00398042061321": {
    "name": "Blacks Road(Brooke Drive)",
    "lon": -6.00398042061321,
    "code": "54.5640872619714:-6.00398042061321",
    "street": "Blacks Road",
    "lat": 54.5640872619714,
    "direction": "Other"
  },
  "54.5670908471038:-6.01232276207092": {
    "name": "Stewartstown Road(Woodbourne)",
    "lon": -6.01232276207092,
    "code": "54.5670908471038:-6.01232276207092",
    "street": "Stewartstown Road",
    "lat": 54.5670908471038,
    "direction": "Inward"
  },
  "54.5904772133405:-5.96789335579892": {
    "name": "Beechview Park",
    "lon": -5.96789335579892,
    "code": "54.5904772133405:-5.96789335579892",
    "street": "Falls Road",
    "lat": 54.5904772133405,
    "direction": "Inward"
  },
  "54.5949689506105:-5.83122120093127": {
    "name": "Rosepark",
    "lon": -5.83122120093127,
    "code": "54.5949689506105:-5.83122120093127",
    "street": "Upper Newtownards Road",
    "lat": 54.5949689506105,
    "direction": "Outward"
  },
  "54.5945849298693:-5.93455989620547": {
    "name": "Great Northern Mall",
    "lon": -5.93455989620547,
    "code": "54.5945849298693:-5.93455989620547",
    "street": "Great Victoria Street",
    "lat": 54.5945849298693,
    "direction": "Inward"
  },
  "54.5962864397546:-5.89823294544526": {
    "name": "Avoniel",
    "lon": -5.89823294544526,
    "code": "54.5962864397546:-5.89823294544526",
    "street": "Albert Bridge Road",
    "lat": 54.5962864397546,
    "direction": "Inward"
  },
  "54.5762165490734:-6.01761646895527": {
    "name": "St.Oliver Plunkett",
    "lon": -6.01761646895527,
    "code": "54.5762165490734:-6.01761646895527",
    "street": "Glen Road",
    "lat": 54.5762165490734,
    "direction": "Inward"
  },
  "54.6539472700864:-5.93026257496487": {
    "name": "Upper Whitewell(Throne)",
    "lon": -5.93026257496487,
    "code": "54.6539472700864:-5.93026257496487",
    "street": "Whitewell Road",
    "lat": 54.6539472700864,
    "direction": "Inward"
  },
  "54.6220604867845:-5.95622323678664": {
    "name": "Cliftonville Circus",
    "lon": -5.95622323678664,
    "code": "54.6220604867845:-5.95622323678664",
    "street": "Oldpark Road",
    "lat": 54.6220604867845,
    "direction": "Inward"
  },
  "54.6081245657531:-5.97383998955282": {
    "name": "Ballygomartin(West Circular Road)",
    "lon": -5.97383998955282,
    "code": "54.6081245657531:-5.97383998955282",
    "street": "Ballygomartin Road",
    "lat": 54.6081245657531,
    "direction": "Outward"
  },
  "54.5897558585231:-5.96881116739436": {
    "name": "Falls Road(St.James)",
    "lon": -5.96881116739436,
    "code": "54.5897558585231:-5.96881116739436",
    "street": "Falls Road",
    "lat": 54.5897558585231,
    "direction": "Inward"
  },
  "54.6252646767417:-5.92329579079309": {
    "name": "York Park",
    "lon": -5.92329579079309,
    "code": "54.6252646767417:-5.92329579079309",
    "street": "Shore Road",
    "lat": 54.6252646767417,
    "direction": "Outward"
  },
  "54.6508668030978:-5.9261425792632": {
    "name": "Vandyck Gardens",
    "lon": -5.9261425792632,
    "code": "54.6508668030978:-5.9261425792632",
    "street": "Whitewell Road",
    "lat": 54.6508668030978,
    "direction": "Inward"
  },
  "54.5808059704094:-5.99460899871865": {
    "name": "Coonasilla",
    "lon": -5.99460899871865,
    "code": "54.5808059704094:-5.99460899871865",
    "street": "Glen Road",
    "lat": 54.5808059704094,
    "direction": "Outward"
  },
  "54.5759681106353:-6.0216497619922": {
    "name": "Hannahstown Hill",
    "lon": -6.0216497619922,
    "code": "54.5759681106353:-6.0216497619922",
    "street": "Glen Road",
    "lat": 54.5759681106353,
    "direction": "Outward"
  },
  "54.581367840155:-5.97977812251149": {
    "name": "Kennedy Centre",
    "lon": -5.97977812251149,
    "code": "54.581367840155:-5.97977812251149",
    "street": "Falls Road",
    "lat": 54.581367840155,
    "direction": "Outward"
  },
  "54.5773913558298:-5.95275306422847": {
    "name": "Brookland Street",
    "lon": -5.95275306422847,
    "code": "54.5773913558298:-5.95275306422847",
    "street": "Lisburn Road",
    "lat": 54.5773913558298,
    "direction": "Outward"
  },
  "54.5945540161314:-5.90714220396925": {
    "name": "Mount Conference Centre",
    "lon": -5.90714220396925,
    "code": "54.5945540161314:-5.90714220396925",
    "street": "Woodstock Link",
    "lat": 54.5945540161314,
    "direction": "Outward"
  },
  "54.5876900717126:-5.90043947211189": {
    "name": "Redcar Street",
    "lon": -5.90043947211189,
    "code": "54.5876900717126:-5.90043947211189",
    "street": "Woodstock Road",
    "lat": 54.5876900717126,
    "direction": "Outward"
  },
  "54.6384176055508:-5.93636502279077": {
    "name": "Donegall Park Avenue",
    "lon": -5.93636502279077,
    "code": "54.6384176055508:-5.93636502279077",
    "street": "Antrim Road",
    "lat": 54.6384176055508,
    "direction": "Inward"
  },
  "54.6006102141375:-5.98065122464236": {
    "name": "Springmartin",
    "lon": -5.98065122464236,
    "code": "54.6006102141375:-5.98065122464236",
    "street": "Springmartin Road",
    "lat": 54.6006102141375,
    "direction": "Terminal"
  },
  "54.6040512348249:-5.94965047987992": {
    "name": "Shankill Road (Co Op)",
    "lon": -5.94965047987992,
    "code": "54.6040512348249:-5.94965047987992",
    "street": "Shankill Road",
    "lat": 54.6040512348249,
    "direction": "Outward"
  },
  "54.6039441895668:-5.94598778958414": {
    "name": "Agnes Street",
    "lon": -5.94598778958414,
    "code": "54.6039441895668:-5.94598778958414",
    "street": "Shankill Road",
    "lat": 54.6039441895668,
    "direction": "Inward"
  },
  "54.5790384802793:-6.00290907568072": {
    "name": "Ramoan",
    "lon": -6.00290907568072,
    "code": "54.5790384802793:-6.00290907568072",
    "street": "Glen Road",
    "lat": 54.5790384802793,
    "direction": "Outward"
  },
  "54.5759183845358:-6.02355451883035": {
    "name": "Hannahstown Hill",
    "lon": -6.02355451883035,
    "code": "54.5759183845358:-6.02355451883035",
    "street": "Glen Road",
    "lat": 54.5759183845358,
    "direction": "Inward"
  },
  "54.571623323095:-5.96128504597946": {
    "name": "Maryville Park",
    "lon": -5.96128504597946,
    "code": "54.571623323095:-5.96128504597946",
    "street": "Lisburn Road",
    "lat": 54.571623323095,
    "direction": "Outward"
  },
  "54.6049177405977:-5.93193161642963": {
    "name": "Donegall Street",
    "lon": -5.93193161642963,
    "code": "54.6049177405977:-5.93193161642963",
    "street": "Donegall Street",
    "lat": 54.6049177405977,
    "direction": "Outward"
  },
  "54.5956207401493:-5.9158457904197": {
    "name": "Maysfield",
    "lon": -5.9158457904197,
    "code": "54.5956207401493:-5.9158457904197",
    "street": "East Bridge Street",
    "lat": 54.5956207401493,
    "direction": "Inward"
  },
  "54.61499733645:-5.9365755481948": {
    "name": "Duncairn Gardens",
    "lon": -5.9365755481948,
    "code": "54.61499733645:-5.9365755481948",
    "street": "Duncairn Gardens",
    "lat": 54.61499733645,
    "direction": "Inward"
  },
  "54.6152386918662:-5.95024889012874": {
    "name": "Oldpark Ave",
    "lon": -5.95024889012874,
    "code": "54.6152386918662:-5.95024889012874",
    "street": "Oldpark Road",
    "lat": 54.6152386918662,
    "direction": "Inward"
  },
  "54.5696829067176:-6.01477905526394": {
    "name": "Riverside Mews",
    "lon": -6.01477905526394,
    "code": "54.5696829067176:-6.01477905526394",
    "street": "Suffolk Road",
    "lat": 54.5696829067176,
    "direction": "Inward"
  },
  "54.6105715541649:-5.92262017371955": {
    "name": "Yorkgate Station",
    "lon": -5.92262017371955,
    "code": "54.6105715541649:-5.92262017371955",
    "street": "York Street",
    "lat": 54.6105715541649,
    "direction": "Inward"
  },
  "54.5943093604792:-5.82601064005122": {
    "name": "Dundonald House",
    "lon": -5.82601064005122,
    "code": "54.5943093604792:-5.82601064005122",
    "street": "Upper Newtownards Road",
    "lat": 54.5943093604792,
    "direction": "Outward"
  },
  "54.5761049386045:-5.93311318945706": {
    "name": "Stranmillis Mews",
    "lon": -5.93311318945706,
    "code": "54.5761049386045:-5.93311318945706",
    "street": "Stranmillis Road",
    "lat": 54.5761049386045,
    "direction": "Outward"
  },
  "54.6001055290636:-5.90914775133418": {
    "name": "\"Short Strand, N'Ards Road \"",
    "lon": -5.90914775133418,
    "code": "54.6001055290636:-5.90914775133418",
    "street": "Newtownards Road",
    "lat": 54.6001055290636,
    "direction": "Inward"
  },
  "54.6544545099594:-5.93102709612629": {
    "name": "Upper Whitewell(Throne)",
    "lon": -5.93102709612629,
    "code": "54.6544545099594:-5.93102709612629",
    "street": "Whitewell Road",
    "lat": 54.6544545099594,
    "direction": "Outward"
  },
  "54.6146040789343:-5.93986198350123": {
    "name": "Cliftonville Road (Academy)",
    "lon": -5.93986198350123,
    "code": "54.6146040789343:-5.93986198350123",
    "street": "Cliftonville Road",
    "lat": 54.6146040789343,
    "direction": "Outward"
  },
  "54.5936633710233:-5.95807940275641": {
    "name": "Childrens Hospital",
    "lon": -5.95807940275641,
    "code": "54.5936633710233:-5.95807940275641",
    "street": "Falls Road",
    "lat": 54.5936633710233,
    "direction": "Inward"
  },
  "54.5606898032726:-5.98602668304625": {
    "name": "Lisburn Road(Finaghy)",
    "lon": -5.98602668304625,
    "code": "54.5606898032726:-5.98602668304625",
    "street": "Upper Lisburn Road",
    "lat": 54.5606898032726,
    "direction": "Outward"
  },
  "54.5847452371427:-5.92924127961208": {
    "name": "Rugby Road",
    "lon": -5.92924127961208,
    "code": "54.5847452371427:-5.92924127961208",
    "street": "University Avenue",
    "lat": 54.5847452371427,
    "direction": "Outward"
  },
  "54.5800953291039:-5.93527773855971": {
    "name": "Ashby Building's",
    "lon": -5.93527773855971,
    "code": "54.5800953291039:-5.93527773855971",
    "street": "Stranmillis Road",
    "lat": 54.5800953291039,
    "direction": "Inward"
  },
  "54.5947688715396:-5.83510033655069": {
    "name": "Summerhill Ave",
    "lon": -5.83510033655069,
    "code": "54.5947688715396:-5.83510033655069",
    "street": "Upper Newtownards Road",
    "lat": 54.5947688715396,
    "direction": "Inward"
  },
  "54.5781306765175:-5.94072881791436": {
    "name": "Malone Road(Windsor Ave)",
    "lon": -5.94072881791436,
    "code": "54.5781306765175:-5.94072881791436",
    "street": "Malone Road",
    "lat": 54.5781306765175,
    "direction": "Inward"
  },
  "54.6603229531818:-5.93953193441065": {
    "name": "Bellevue Park",
    "lon": -5.93953193441065,
    "code": "54.6603229531818:-5.93953193441065",
    "street": "Whitewell Road",
    "lat": 54.6603229531818,
    "direction": "Outward"
  },
  "54.5713497223828:-5.90842462866568": {
    "name": "Knock Eden",
    "lon": -5.90842462866568,
    "code": "54.5713497223828:-5.90842462866568",
    "street": "Knockbreda Road",
    "lat": 54.5713497223828,
    "direction": "Inward"
  },
  "54.6022863584815:-5.93252935413977": {
    "name": "North Street",
    "lon": -5.93252935413977,
    "code": "54.6022863584815:-5.93252935413977",
    "street": "North Street",
    "lat": 54.6022863584815,
    "direction": "Outward"
  },
  "54.5643494820426:-6.0057148003786": {
    "name": "Blacks Road(Blacks Court)",
    "lon": -6.0057148003786,
    "code": "54.5643494820426:-6.0057148003786",
    "street": "Blacks Road",
    "lat": 54.5643494820426,
    "direction": "Other"
  },
  "54.6001465725279:-5.94246488951364": {
    "name": "Divis Tower",
    "lon": -5.94246488951364,
    "code": "54.6001465725279:-5.94246488951364",
    "street": "Divis Street",
    "lat": 54.6001465725279,
    "direction": "Outward"
  },
  "54.5873937906158:-5.93806450107831": {
    "name": "Fountainville Avenue",
    "lon": -5.93806450107831,
    "code": "54.5873937906158:-5.93806450107831",
    "street": "Lisburn Road",
    "lat": 54.5873937906158,
    "direction": "Inward"
  },
  "54.5662737546424:-5.98952420101293": {
    "name": "Finaghy Road North (Orchardville)",
    "lon": -5.98952420101293,
    "code": "54.5662737546424:-5.98952420101293",
    "street": "Finaghy Road North",
    "lat": 54.5662737546424,
    "direction": "Inward"
  },
  "54.6517878471018:-5.92745924697299": {
    "name": "Lower WhitewelL(White City)",
    "lon": -5.92745924697299,
    "code": "54.6517878471018:-5.92745924697299",
    "street": "Whitewell Road",
    "lat": 54.6517878471018,
    "direction": "Outward"
  },
  "54.5541591189118:-5.9710605388774": {
    "name": "Upper Malone Road(Malone Height's)",
    "lon": -5.9710605388774,
    "code": "54.5541591189118:-5.9710605388774",
    "street": "Upper Malone Road",
    "lat": 54.5541591189118,
    "direction": "Outward"
  },
  "54.6452534908019:-5.93521294762647": {
    "name": "Gray's Lane",
    "lon": -5.93521294762647,
    "code": "54.6452534908019:-5.93521294762647",
    "street": "Antrim Road",
    "lat": 54.6452534908019,
    "direction": "Outward"
  },
  "54.6088279930853:-5.87038959051021": {
    "name": "Inverleath Drive",
    "lon": -5.87038959051021,
    "code": "54.6088279930853:-5.87038959051021",
    "street": "Inverary Avenue",
    "lat": 54.6088279930853,
    "direction": "Outward"
  },
  "54.6241535830082:-5.92294981093267": {
    "name": "Seaview",
    "lon": -5.92294981093267,
    "code": "54.6241535830082:-5.92294981093267",
    "street": "Shore Road",
    "lat": 54.6241535830082,
    "direction": "Inward"
  },
  "54.616932153343:-5.98043099224464": {
    "name": "Forthriver Drive",
    "lon": -5.98043099224464,
    "code": "54.616932153343:-5.98043099224464",
    "street": "Forthriver Road",
    "lat": 54.616932153343,
    "direction": "Inward"
  },
  "54.5808575348588:-5.99067754233223": {
    "name": "Glen Road(St.Teresa's)",
    "lon": -5.99067754233223,
    "code": "54.5808575348588:-5.99067754233223",
    "street": "Glen Road",
    "lat": 54.5808575348588,
    "direction": "Inward"
  },
  "54.5766842301512:-6.00998421320334": {
    "name": "Shaws Road(Lenadoon Avenue)",
    "lon": -6.00998421320334,
    "code": "54.5766842301512:-6.00998421320334",
    "street": "Shaws Road",
    "lat": 54.5766842301512,
    "direction": "Inward"
  },
  "54.586607077083:-5.9717835295222": {
    "name": "St. Louises",
    "lon": -5.9717835295222,
    "code": "54.586607077083:-5.9717835295222",
    "street": "Falls Road",
    "lat": 54.586607077083,
    "direction": "Outward"
  },
  "54.6052970871316:-5.87961306651356": {
    "name": "Connsbrook Avenue/Larkfield",
    "lon": -5.87961306651356,
    "code": "54.6052970871316:-5.87961306651356",
    "street": "Connsbrook Avenue",
    "lat": 54.6052970871316,
    "direction": "Inward"
  },
  "54.5951275449114:-5.86692693282609": {
    "name": "Ballyhackamore",
    "lon": -5.86692693282609,
    "code": "54.5951275449114:-5.86692693282609",
    "street": "Upper Newtownards Road",
    "lat": 54.5951275449114,
    "direction": "Outward"
  },
  "54.553602733357:-5.97807515557492": {
    "name": "Chippendale Court",
    "lon": -5.97807515557492,
    "code": "54.553602733357:-5.97807515557492",
    "street": "Finaghy Road South",
    "lat": 54.553602733357,
    "direction": "Inward"
  },
  "54.6239504087086:-5.96173389663409": {
    "name": "Deerpark Road",
    "lon": -5.96173389663409,
    "code": "54.6239504087086:-5.96173389663409",
    "street": "Oldpark Road",
    "lat": 54.6239504087086,
    "direction": "Outward"
  },
  "54.5819127442664:-5.94703486724761": {
    "name": "Melrose Street",
    "lon": -5.94703486724761,
    "code": "54.5819127442664:-5.94703486724761",
    "street": "Lisburn Road",
    "lat": 54.5819127442664,
    "direction": "Outward"
  },
  "54.6046179302087:-5.92806199110164": {
    "name": "Dunbar Link",
    "lon": -5.92806199110164,
    "code": "54.6046179302087:-5.92806199110164",
    "street": "Dunbar Link",
    "lat": 54.6046179302087,
    "direction": "Inward"
  },
  "54.5998791969384:-5.90645110957447": {
    "name": "Bryson Street",
    "lon": -5.90645110957447,
    "code": "54.5998791969384:-5.90645110957447",
    "street": "Newtownards Road",
    "lat": 54.5998791969384,
    "direction": "Inward"
  },
  "54.5890850338693:-5.9334458844949": {
    "name": "Botanic Avenue (Shaftsbury Square).",
    "lon": -5.9334458844949,
    "code": "54.5890850338693:-5.9334458844949",
    "street": "Botanic Avenue",
    "lat": 54.5890850338693,
    "direction": "Outward"
  },
  "54.590104054521:-5.96814401816253": {
    "name": "Beechview Park",
    "lon": -5.96814401816253,
    "code": "54.590104054521:-5.96814401816253",
    "street": "Falls Road",
    "lat": 54.590104054521,
    "direction": "Outward"
  },
  "54.6106180365765:-5.93583746270196": {
    "name": "Dawson Street",
    "lon": -5.93583746270196,
    "code": "54.6106180365765:-5.93583746270196",
    "street": "Antrim Road",
    "lat": 54.6106180365765,
    "direction": "Inward"
  },
  "54.6184169369436:-5.8603046820953": {
    "name": "Tillysburn",
    "lon": -5.8603046820953,
    "code": "54.6184169369436:-5.8603046820953",
    "street": "Tillysburn",
    "lat": 54.6184169369436,
    "direction": "Inward"
  },
  "54.6143187136907:-5.93840570426334": {
    "name": "Cliftonville Road (Academy)",
    "lon": -5.93840570426334,
    "code": "54.6143187136907:-5.93840570426334",
    "street": "Cliftonville Road",
    "lat": 54.6143187136907,
    "direction": "Inward"
  },
  "54.5731012951217:-6.01996379171342": {
    "name": " Old Suffolk Road",
    "lon": -6.01996379171342,
    "code": "54.5731012951217:-6.01996379171342",
    "street": "Suffolk Road",
    "lat": 54.5731012951217,
    "direction": "Outward"
  },
  "54.5600519032791:-5.97526680760632": {
    "name": "Scilly Park(Priory Park)",
    "lon": -5.97526680760632,
    "code": "54.5600519032791:-5.97526680760632",
    "street": "Scilly Park",
    "lat": 54.5600519032791,
    "direction": "Inward"
  },
  "54.567646691113:-5.96898328120816": {
    "name": "Lisburn Road(Kings Hall)",
    "lon": -5.96898328120816,
    "code": "54.567646691113:-5.96898328120816",
    "street": "Lisburn Road",
    "lat": 54.567646691113,
    "direction": "Outward"
  },
  "54.5604101203706:-5.98433982094015": {
    "name": "Finaghy Road South Health Center",
    "lon": -5.98433982094015,
    "code": "54.5604101203706:-5.98433982094015",
    "street": "Finaghy Road South",
    "lat": 54.5604101203706,
    "direction": "Inward"
  },
  "54.6057281667496:-5.87601523110917": {
    "name": "Palmerston Road",
    "lon": -5.87601523110917,
    "code": "54.6057281667496:-5.87601523110917",
    "street": "Palmerston Road",
    "lat": 54.6057281667496,
    "direction": "Outward"
  },
  "54.594865834738:-5.86177232738198": {
    "name": "Belmont Church Road",
    "lon": -5.86177232738198,
    "code": "54.594865834738:-5.86177232738198",
    "street": "Upper Newtownards Road",
    "lat": 54.594865834738,
    "direction": "Inward"
  },
  "54.6307208770633:-5.9223826803189": {
    "name": "Mount Vernon",
    "lon": -5.9223826803189,
    "code": "54.6307208770633:-5.9223826803189",
    "street": "Shore Road",
    "lat": 54.6307208770633,
    "direction": "Inward"
  },
  "54.593182512799:-5.88819603181052": {
    "name": "Holycroft Avenue",
    "lon": -5.88819603181052,
    "code": "54.593182512799:-5.88819603181052",
    "street": "Beersbridge Road",
    "lat": 54.593182512799,
    "direction": "Inward"
  },
  "54.5624048366646:-5.98272617761494": {
    "name": "Grangeville Drive",
    "lon": -5.98272617761494,
    "code": "54.5624048366646:-5.98272617761494",
    "street": "Upper Lisburn Road",
    "lat": 54.5624048366646,
    "direction": "Outward"
  },
  "54.5579694595475:-5.95935387310336": {
    "name": "Malone Road(Bristow Park)",
    "lon": -5.95935387310336,
    "code": "54.5579694595475:-5.95935387310336",
    "street": "Upper Malone Road",
    "lat": 54.5579694595475,
    "direction": "Outward"
  },
  "54.5789531115761:-5.91948114202893": {
    "name": "South Parade",
    "lon": -5.91948114202893,
    "code": "54.5789531115761:-5.91948114202893",
    "street": "Ormeau Road",
    "lat": 54.5789531115761,
    "direction": "Outward"
  },
  "54.5853981290771:-5.89006858091272": {
    "name": "Ladas Drive",
    "lon": -5.89006858091272,
    "code": "54.5853981290771:-5.89006858091272",
    "street": "Castlereagh Road",
    "lat": 54.5853981290771,
    "direction": "Outward"
  },
  "54.5857982982039:-5.89963952800499": {
    "name": "Ravenhill Avenue",
    "lon": -5.89963952800499,
    "code": "54.5857982982039:-5.89963952800499",
    "street": "Cregagh Road",
    "lat": 54.5857982982039,
    "direction": "Inward"
  },
  "54.5979994691259:-5.89082499266456": {
    "name": "Connswater",
    "lon": -5.89082499266456,
    "code": "54.5979994691259:-5.89082499266456",
    "street": "Newtownards Road",
    "lat": 54.5979994691259,
    "direction": "Outward"
  },
  "54.5958303863019:-5.93225309430102": {
    "name": "Howard Street",
    "lon": -5.93225309430102,
    "code": "54.5958303863019:-5.93225309430102",
    "street": "Howard Street",
    "lat": 54.5958303863019,
    "direction": "CityCentre"
  },
  "54.614049995214:-5.93423943168367": {
    "name": "Halliday's Road",
    "lon": -5.93423943168367,
    "code": "54.614049995214:-5.93423943168367",
    "street": "Duncairn Gardens",
    "lat": 54.614049995214,
    "direction": "Inward"
  },
  "54.6120743040751:-5.97469633670203": {
    "name": "Forthriver Pass",
    "lon": -5.97469633670203,
    "code": "54.6120743040751:-5.97469633670203",
    "street": "Forthriver Road",
    "lat": 54.6120743040751,
    "direction": "Inward"
  },
  "54.5560048395451:-5.96540368066844": {
    "name": "Upper Malone Road(Dub Lane)",
    "lon": -5.96540368066844,
    "code": "54.5560048395451:-5.96540368066844",
    "street": "Upper Malone Road",
    "lat": 54.5560048395451,
    "direction": "Inward"
  },
  "54.6211087799585:-5.92353854164478": {
    "name": "Skegoniel",
    "lon": -5.92353854164478,
    "code": "54.6211087799585:-5.92353854164478",
    "street": "Shore Road",
    "lat": 54.6211087799585,
    "direction": "Inward"
  },
  "54.5679121024138:-5.94903775758354": {
    "name": "Malone Road(Bladon Drive)",
    "lon": -5.94903775758354,
    "code": "54.5679121024138:-5.94903775758354",
    "street": "Malone Road",
    "lat": 54.5679121024138,
    "direction": "Inward"
  },
  "54.6405008470345:-5.93629044017958": {
    "name": "Downview Avenue",
    "lon": -5.93629044017958,
    "code": "54.6405008470345:-5.93629044017958",
    "street": "Antrim Road",
    "lat": 54.6405008470345,
    "direction": "Inward"
  },
  "54.6254896755058:-5.96831554761707": {
    "name": "Silverstream Gardens",
    "lon": -5.96831554761707,
    "code": "54.6254896755058:-5.96831554761707",
    "street": "Ballysillan Road",
    "lat": 54.6254896755058,
    "direction": "Inward"
  },
  "54.6318187972284:-5.92300814749461": {
    "name": "Mount Vernon",
    "lon": -5.92300814749461,
    "code": "54.6318187972284:-5.92300814749461",
    "street": "Shore Road",
    "lat": 54.6318187972284,
    "direction": "Outward"
  },
  "54.6452534087478:-5.92051022253306": {
    "name": "Greencastle",
    "lon": -5.92051022253306,
    "code": "54.6452534087478:-5.92051022253306",
    "street": "Shore Road",
    "lat": 54.6452534087478,
    "direction": "Outward"
  },
  "54.612271190383:-5.94798317918659": {
    "name": "Hillview Road",
    "lon": -5.94798317918659,
    "code": "54.612271190383:-5.94798317918659",
    "street": "Oldpark Road",
    "lat": 54.612271190383,
    "direction": "Outward"
  },
  "54.6014180383945:-5.98167907269249": {
    "name": "Springmartin Road",
    "lon": -5.98167907269249,
    "code": "54.6014180383945:-5.98167907269249",
    "street": "Springmartin Road",
    "lat": 54.6014180383945,
    "direction": "Inward"
  },
  "54.571134346379:-6.01671886176038": {
    "name": "Falcarragh",
    "lon": -6.01671886176038,
    "code": "54.571134346379:-6.01671886176038",
    "street": "Suffolk Road",
    "lat": 54.571134346379,
    "direction": "Outward"
  },
  "54.5976591626434:-5.95314412048297": {
    "name": "Falls Library",
    "lon": -5.95314412048297,
    "code": "54.5976591626434:-5.95314412048297",
    "street": "Falls Road",
    "lat": 54.5976591626434,
    "direction": "Inward"
  },
  "54.5946467289825:-5.90730765807333": {
    "name": "Woodstock Lodge",
    "lon": -5.90730765807333,
    "code": "54.5946467289825:-5.90730765807333",
    "street": "Woodstock Link",
    "lat": 54.5946467289825,
    "direction": "Inward"
  },
  "54.6145893948556:-5.86183700682326": {
    "name": "Tillysburn",
    "lon": -5.86183700682326,
    "code": "54.6145893948556:-5.86183700682326",
    "street": "Hollywood Road",
    "lat": 54.6145893948556,
    "direction": "Outward"
  },
  "54.6145032097606:-5.9492641207138": {
    "name": "Churchview Court",
    "lon": -5.9492641207138,
    "code": "54.6145032097606:-5.9492641207138",
    "street": "Oldpark Road",
    "lat": 54.6145032097606,
    "direction": "Outward"
  },
  "54.6563722541206:-5.93336265105349": {
    "name": "Throne Centre",
    "lon": -5.93336265105349,
    "code": "54.6563722541206:-5.93336265105349",
    "street": "Whitewell Road",
    "lat": 54.6563722541206,
    "direction": "Outward"
  },
  "54.5944056970569:-5.84445033130668": {
    "name": "Stormont Park",
    "lon": -5.84445033130668,
    "code": "54.5944056970569:-5.84445033130668",
    "street": "Upper Newtownards Road",
    "lat": 54.5944056970569,
    "direction": "Inward"
  },
  "54.5949637993572:-5.86223141131989": {
    "name": "Belmont Church Road",
    "lon": -5.86223141131989,
    "code": "54.5949637993572:-5.86223141131989",
    "street": "Upper Newtownards Road",
    "lat": 54.5949637993572,
    "direction": "Outward"
  },
  "54.619997866372:-5.98323634848599": {
    "name": "Forthriver Dale",
    "lon": -5.98323634848599,
    "code": "54.619997866372:-5.98323634848599",
    "street": "Forthriver Road",
    "lat": 54.619997866372,
    "direction": "Inward"
  },
  "54.6314832374435:-5.97049464602818": {
    "name": "Ballysillan Avenue",
    "lon": -5.97049464602818,
    "code": "54.6314832374435:-5.97049464602818",
    "street": "Ballysillan Park",
    "lat": 54.6314832374435,
    "direction": "Outward"
  },
  "54.6142656360853:-5.96553111009728": {
    "name": "Ardoyne Shops",
    "lon": -5.96553111009728,
    "code": "54.6142656360853:-5.96553111009728",
    "street": "Crumlin Road",
    "lat": 54.6142656360853,
    "direction": "Inward"
  },
  "54.5845072120541:-5.97784370600281": {
    "name": "Falls Park",
    "lon": -5.97784370600281,
    "code": "54.5845072120541:-5.97784370600281",
    "street": "Falls Road",
    "lat": 54.5845072120541,
    "direction": "Inward"
  },
  "54.6188684211787:-5.92335851149936": {
    "name": "Bute Street",
    "lon": -5.92335851149936,
    "code": "54.6188684211787:-5.92335851149936",
    "street": "York Road",
    "lat": 54.6188684211787,
    "direction": "Outward"
  },
  "54.6515802998753:-5.93476808303145": {
    "name": "Ben Madigan Park",
    "lon": -5.93476808303145,
    "code": "54.6515802998753:-5.93476808303145",
    "street": "Antrim Road",
    "lat": 54.6515802998753,
    "direction": "Outward"
  },
  "54.6129796166553:-5.86277288790144": {
    "name": "Templeton House",
    "lon": -5.86277288790144,
    "code": "54.6129796166553:-5.86277288790144",
    "street": "Hollywood Road",
    "lat": 54.6129796166553,
    "direction": "Inward"
  },
  "54.6093549149056:-5.87173973376239": {
    "name": "Inverleath Drive",
    "lon": -5.87173973376239,
    "code": "54.6093549149056:-5.87173973376239",
    "street": "Inverary Avenue",
    "lat": 54.6093549149056,
    "direction": "Inward"
  },
  "54.6192275757947:-5.9534080692739": {
    "name": "Torrens Crescent",
    "lon": -5.9534080692739,
    "code": "54.6192275757947:-5.9534080692739",
    "street": "Oldpark Road",
    "lat": 54.6192275757947,
    "direction": "Outward"
  },
  "54.6155766666064:-5.94210409568469": {
    "name": "Manor Street",
    "lon": -5.94210409568469,
    "code": "54.6155766666064:-5.94210409568469",
    "street": "Cliftonville Road",
    "lat": 54.6155766666064,
    "direction": "Inward"
  },
  "54.6240423827411:-5.93851769139603": {
    "name": "Kansas Avenue",
    "lon": -5.93851769139603,
    "code": "54.6240423827411:-5.93851769139603",
    "street": "Antrim Road",
    "lat": 54.6240423827411,
    "direction": "Outward"
  },
  "54.5545972721409:-5.96986394641854": {
    "name": "Malone Drive",
    "lon": -5.96986394641854,
    "code": "54.5545972721409:-5.96986394641854",
    "street": "Upper Malone Road",
    "lat": 54.5545972721409,
    "direction": "Inward"
  },
  "54.6055872050355:-5.92799726268897": {
    "name": "LittleGeorge Street",
    "lon": -5.92799726268897,
    "code": "54.6055872050355:-5.92799726268897",
    "street": "York Street",
    "lat": 54.6055872050355,
    "direction": "Outward"
  },
  "54.5784281802757:-5.9192604184176": {
    "name": "South Parade",
    "lon": -5.9192604184176,
    "code": "54.5784281802757:-5.9192604184176",
    "street": "Ormeau Road",
    "lat": 54.5784281802757,
    "direction": "Inward"
  },
  "54.5963051156261:-5.93164100795711": {
    "name": "Donegall Square West",
    "lon": -5.93164100795711,
    "code": "54.5963051156261:-5.93164100795711",
    "street": "Donegall Square West",
    "lat": 54.5963051156261,
    "direction": "CityCentre"
  },
  "54.5967053913234:-5.93140406933523": {
    "name": "Donegall Square West",
    "lon": -5.93140406933523,
    "code": "54.5967053913234:-5.93140406933523",
    "street": "Donegall Square West",
    "lat": 54.5967053913234,
    "direction": "CityCentre"
  },
  "54.5697390034978:-5.9407499998443": {
    "name": "Stranmillis(Broomhill Park)",
    "lon": -5.9407499998443,
    "code": "54.5697390034978:-5.9407499998443",
    "street": "Stranmillis Road",
    "lat": 54.5697390034978,
    "direction": "Outward"
  },
  "54.6258627981386:-5.98364291141805": {
    "name": "Ligoneil Community Centre",
    "lon": -5.98364291141805,
    "code": "54.6258627981386:-5.98364291141805",
    "street": "Ligoniel Road",
    "lat": 54.6258627981386,
    "direction": "Outward"
  },
  "54.6266515862396:-5.96581087644541": {
    "name": "Oldpark Shops",
    "lon": -5.96581087644541,
    "code": "54.6266515862396:-5.96581087644541",
    "street": "Oldpark Road",
    "lat": 54.6266515862396,
    "direction": "Outward"
  },
  "54.6263985329829:-5.96518860147191": {
    "name": "Oldpark Shops",
    "lon": -5.96518860147191,
    "code": "54.6263985329829:-5.96518860147191",
    "street": "Oldpark Road",
    "lat": 54.6263985329829,
    "direction": "Inward"
  },
  "54.6186113663537:-5.9819889383754": {
    "name": "Glencairn Mission Hall",
    "lon": -5.9819889383754,
    "code": "54.6186113663537:-5.9819889383754",
    "street": "Forthriver Road",
    "lat": 54.6186113663537,
    "direction": "Outward"
  },
  "54.6258012876539:-5.96814515677537": {
    "name": "Silverstream Gardens",
    "lon": -5.96814515677537,
    "code": "54.6258012876539:-5.96814515677537",
    "street": "Ballysillan Road",
    "lat": 54.6258012876539,
    "direction": "Outward"
  },
  "54.6120820488862:-5.96337998285232": {
    "name": "Woodvale Parade",
    "lon": -5.96337998285232,
    "code": "54.6120820488862:-5.96337998285232",
    "street": "Woodvale Road",
    "lat": 54.6120820488862,
    "direction": "Inward"
  },
  "54.6281016280493:-5.9660172321942": {
    "name": "Churchview",
    "lon": -5.9660172321942,
    "code": "54.6281016280493:-5.9660172321942",
    "street": "Ballysillan Park",
    "lat": 54.6281016280493,
    "direction": "Inward"
  },
  "54.6252576018229:-5.98237211215308": {
    "name": "133 Ligoniel Road",
    "lon": -5.98237211215308,
    "code": "54.6252576018229:-5.98237211215308",
    "street": "Ligoniel Road",
    "lat": 54.6252576018229,
    "direction": "Inward"
  },
  "54.6147310591942:-5.97775344695743": {
    "name": "Forthriver Way",
    "lon": -5.97775344695743,
    "code": "54.6147310591942:-5.97775344695743",
    "street": "Forthriver Road",
    "lat": 54.6147310591942,
    "direction": "Inward"
  },
  "54.5999831903933:-5.94501113164033": {
    "name": "St.Comgall's",
    "lon": -5.94501113164033,
    "code": "54.5999831903933:-5.94501113164033",
    "street": "Falls Road",
    "lat": 54.5999831903933,
    "direction": "Inward"
  },
  "54.5926135515033:-5.90456493515712": {
    "name": "Cherryville Street",
    "lon": -5.90456493515712,
    "code": "54.5926135515033:-5.90456493515712",
    "street": "Woodstock Link",
    "lat": 54.5926135515033,
    "direction": "Inward"
  },
  "54.5961112995496:-5.8789300218087": {
    "name": "Wynfield Court",
    "lon": -5.8789300218087,
    "code": "54.5961112995496:-5.8789300218087",
    "street": "Upper Newtownards Road",
    "lat": 54.5961112995496,
    "direction": "Inward"
  },
  "54.6001501947531:-5.90809310813932": {
    "name": "\"Short Strand, (N'Ards Road)\"",
    "lon": -5.90809310813932,
    "code": "54.6001501947531:-5.90809310813932",
    "street": "Newtownards Road",
    "lat": 54.6001501947531,
    "direction": "Outward"
  },
  "54.6195022818562:-5.93836026771017": {
    "name": "Richmond Lane",
    "lon": -5.93836026771017,
    "code": "54.6195022818562:-5.93836026771017",
    "street": "Antrim Road",
    "lat": 54.6195022818562,
    "direction": "Inward"
  },
  "54.5852519056841:-5.92420326475983": {
    "name": "University Avenue",
    "lon": -5.92420326475983,
    "code": "54.5852519056841:-5.92420326475983",
    "street": "University Avenue",
    "lat": 54.5852519056841,
    "direction": "Inward"
  },
  "54.5983212618019:-5.91092600273223": {
    "name": "Short Strand(Mountpottinger)",
    "lon": -5.91092600273223,
    "code": "54.5983212618019:-5.91092600273223",
    "street": "Mountpottinger Link",
    "lat": 54.5983212618019,
    "direction": "Inward"
  },
  "54.6131622781206:-5.9317146294129": {
    "name": "Edlingham Street",
    "lon": -5.9317146294129,
    "code": "54.6131622781206:-5.9317146294129",
    "street": "Duncairn Gardens",
    "lat": 54.6131622781206,
    "direction": "Inward"
  },
  "54.6304828097949:-5.96122123539414": {
    "name": "Carr's Glen(Joanmount)",
    "lon": -5.96122123539414,
    "code": "54.6304828097949:-5.96122123539414",
    "street": "Ballysillan Road",
    "lat": 54.6304828097949,
    "direction": "Terminal"
  },
  "54.622893207996:-5.95924735788893": {
    "name": "Dunkeld Gardens",
    "lon": -5.95924735788893,
    "code": "54.622893207996:-5.95924735788893",
    "street": "Oldpark Road",
    "lat": 54.622893207996,
    "direction": "Outward"
  },
  "54.6243542595672:-5.97455058477267": {
    "name": "Tedburn Park",
    "lon": -5.97455058477267,
    "code": "54.6243542595672:-5.97455058477267",
    "street": "Bilston Road",
    "lat": 54.6243542595672,
    "direction": "Inward"
  },
  "54.5863185503765:-5.93982058228887": {
    "name": "Lisburn Road(City Hospital)",
    "lon": -5.93982058228887,
    "code": "54.5863185503765:-5.93982058228887",
    "street": "Lisburn Road",
    "lat": 54.5863185503765,
    "direction": "Outward"
  },
  "54.5739635898852:-5.93294322087229": {
    "name": "Stranmillis College",
    "lon": -5.93294322087229,
    "code": "54.5739635898852:-5.93294322087229",
    "street": "Stranmillis Road",
    "lat": 54.5739635898852,
    "direction": "Inward"
  },
  "54.6383119799404:-5.92335859209171": {
    "name": "Shore Crescent",
    "lon": -5.92335859209171,
    "code": "54.6383119799404:-5.92335859209171",
    "street": "Shore Road",
    "lat": 54.6383119799404,
    "direction": "Inward"
  },
  "54.5868050514544:-5.93568083265615": {
    "name": "University Road",
    "lon": -5.93568083265615,
    "code": "54.5868050514544:-5.93568083265615",
    "street": "University Road",
    "lat": 54.5868050514544,
    "direction": "Outward"
  },
  "54.5872760905816:-5.93590453548043": {
    "name": "University Road",
    "lon": -5.93590453548043,
    "code": "54.5872760905816:-5.93590453548043",
    "street": "University Road",
    "lat": 54.5872760905816,
    "direction": "Inward"
  },
  "54.609727860432:-5.87250972173063": {
    "name": "Inverary Playing Fields",
    "lon": -5.87250972173063,
    "code": "54.609727860432:-5.87250972173063",
    "street": "Inverary Avenue",
    "lat": 54.609727860432,
    "direction": "Outward"
  },
  "54.5700863368299:-5.93845923245286": {
    "name": "Richmond Park",
    "lon": -5.93845923245286,
    "code": "54.5700863368299:-5.93845923245286",
    "street": "Stranmillis Road",
    "lat": 54.5700863368299,
    "direction": "Outward"
  },
  "54.6159943075159:-5.96841729979017": {
    "name": "Everton Complex",
    "lon": -5.96841729979017,
    "code": "54.6159943075159:-5.96841729979017",
    "street": "Crumlin Road",
    "lat": 54.6159943075159,
    "direction": "Outward"
  },
  "54.574065532499:-6.00101809863736": {
    "name": "Shaws Road(Stewartstown Road)",
    "lon": -6.00101809863736,
    "code": "54.574065532499:-6.00101809863736",
    "street": "Shaws Road",
    "lat": 54.574065532499,
    "direction": "Inward"
  },
  "54.5705629544668:-5.96341022134475": {
    "name": "Lislea Park",
    "lon": -5.96341022134475,
    "code": "54.5705629544668:-5.96341022134475",
    "street": "Lisburn Road",
    "lat": 54.5705629544668,
    "direction": "Inward"
  },
  "54.5976201918038:-5.88762582876859": {
    "name": "Holywood Arches",
    "lon": -5.88762582876859,
    "code": "54.5976201918038:-5.88762582876859",
    "street": "Upper Newtownards Road",
    "lat": 54.5976201918038,
    "direction": "Outward"
  },
  "54.5913011647646:-5.88080472473029": {
    "name": "Bloomfield Roundabout",
    "lon": -5.88080472473029,
    "code": "54.5913011647646:-5.88080472473029",
    "street": "Bloomfield Road",
    "lat": 54.5913011647646,
    "direction": "Inward"
  },
  "54.660107517047:-5.93901589410946": {
    "name": "Bellevue Park",
    "lon": -5.93901589410946,
    "code": "54.660107517047:-5.93901589410946",
    "street": "Whitewell Road",
    "lat": 54.660107517047,
    "direction": "Inward"
  },
  "54.6373778260071:-5.92337524290295": {
    "name": "Donegall Park Avenue",
    "lon": -5.92337524290295,
    "code": "54.6373778260071:-5.92337524290295",
    "street": "Shore Road",
    "lat": 54.6373778260071,
    "direction": "Outward"
  },
  "54.5801737993968:-5.99875452808636": {
    "name": "CBS",
    "lon": -5.99875452808636,
    "code": "54.5801737993968:-5.99875452808636",
    "street": "Glen Road",
    "lat": 54.5801737993968,
    "direction": "Inward"
  },
  "54.5618424162715:-5.98402175999211": {
    "name": "Lisburn Road(Finaghy)",
    "lon": -5.98402175999211,
    "code": "54.5618424162715:-5.98402175999211",
    "street": "Upper Lisburn Road",
    "lat": 54.5618424162715,
    "direction": "Inward"
  },
  "54.5669995933705:-5.91354928826061": {
    "name": "Hampton Park",
    "lon": -5.91354928826061,
    "code": "54.5669995933705:-5.91354928826061",
    "street": "Ormeau Road",
    "lat": 54.5669995933705,
    "direction": "Outward"
  },
  "54.5957169784289:-5.91673836979401": {
    "name": "East Bridge Street (Central Station)",
    "lon": -5.91673836979401,
    "code": "54.5957169784289:-5.91673836979401",
    "street": "East Bridge Street",
    "lat": 54.5957169784289,
    "direction": "Outward"
  },
  "54.6142604301611:-5.93498733940481": {
    "name": "Halliday's Road",
    "lon": -5.93498733940481,
    "code": "54.6142604301611:-5.93498733940481",
    "street": "Duncairn Gardens",
    "lat": 54.6142604301611,
    "direction": "Outward"
  },
  "54.584627756645:-5.9297268057085": {
    "name": "Rugby Road",
    "lon": -5.9297268057085,
    "code": "54.584627756645:-5.9297268057085",
    "street": "University Avenue",
    "lat": 54.584627756645,
    "direction": "Inward"
  },
  "54.6042211840251:-5.98005453503803": {
    "name": "Ballygomartin(Highcliffe Gardens)",
    "lon": -5.98005453503803,
    "code": "54.6042211840251:-5.98005453503803",
    "street": "Ballygomartin Road",
    "lat": 54.6042211840251,
    "direction": "Inward"
  },
  "54.6043101626255:-5.95220668087764": {
    "name": "Berlin Street",
    "lon": -5.95220668087764,
    "code": "54.6043101626255:-5.95220668087764",
    "street": "Shankill Road",
    "lat": 54.6043101626255,
    "direction": "Inward"
  },
  "54.5807802934616:-5.99577037254319": {
    "name": "Coolnasilla",
    "lon": -5.99577037254319,
    "code": "54.5807802934616:-5.99577037254319",
    "street": "Glen Road",
    "lat": 54.5807802934616,
    "direction": "Inward"
  },
  "54.5733123686424:-5.99785365498965": {
    "name": "Stewartstown Road(Shaws Road)",
    "lon": -5.99785365498965,
    "code": "54.5733123686424:-5.99785365498965",
    "street": "Stewartstown Road",
    "lat": 54.5733123686424,
    "direction": "Inward"
  },
  "54.5785895180649:-5.95134729997777": {
    "name": "Ethel Street",
    "lon": -5.95134729997777,
    "code": "54.5785895180649:-5.95134729997777",
    "street": "Lisburn Road",
    "lat": 54.5785895180649,
    "direction": "Outward"
  },
  "54.5753025624647:-5.95568813565185": {
    "name": "Lisburn Road(Marlborough Park)",
    "lon": -5.95568813565185,
    "code": "54.5753025624647:-5.95568813565185",
    "street": "Lisburn Road",
    "lat": 54.5753025624647,
    "direction": "Inward"
  },
  "54.5731284795752:-5.94668788095498": {
    "name": "Malone Road(Notting Hill)",
    "lon": -5.94668788095498,
    "code": "54.5731284795752:-5.94668788095498",
    "street": "Malone Road",
    "lat": 54.5731284795752,
    "direction": "Outward"
  },
  "54.6225181117765:-5.93817672789363": {
    "name": "Hopefield Avenue",
    "lon": -5.93817672789363,
    "code": "54.6225181117765:-5.93817672789363",
    "street": "Antrim Road",
    "lat": 54.6225181117765,
    "direction": "Inward"
  },
  "54.6051563140446:-5.87722133026214": {
    "name": "Larkfield Road",
    "lon": -5.87722133026214,
    "code": "54.6051563140446:-5.87722133026214",
    "street": "Larkfield Road",
    "lat": 54.6051563140446,
    "direction": "Inward"
  },
  "54.5982402625578:-5.93341534983526": {
    "name": "Queen Street",
    "lon": -5.93341534983526,
    "code": "54.5982402625578:-5.93341534983526",
    "street": "Queen Street",
    "lat": 54.5982402625578,
    "direction": "CityCentre"
  },
  "54.5914983729501:-5.9645004728862": {
    "name": "Beechmount",
    "lon": -5.9645004728862,
    "code": "54.5914983729501:-5.9645004728862",
    "street": "Falls Road",
    "lat": 54.5914983729501,
    "direction": "Outward"
  },
  "54.5807038395759:-5.92096967228766": {
    "name": "Candahar Street",
    "lon": -5.92096967228766,
    "code": "54.5807038395759:-5.92096967228766",
    "street": "Ormeau Road",
    "lat": 54.5807038395759,
    "direction": "Inward"
  },
  "54.5967085848618:-5.89718987560587": {
    "name": "Hornby Street",
    "lon": -5.89718987560587,
    "code": "54.5967085848618:-5.89718987560587",
    "street": "Albert Bridge Road",
    "lat": 54.5967085848618,
    "direction": "Outward"
  },
  "54.5696915026951:-5.91386019564994": {
    "name": "Rosetta(St John's Church)",
    "lon": -5.91386019564994,
    "code": "54.5696915026951:-5.91386019564994",
    "street": "Ormeau Road",
    "lat": 54.5696915026951,
    "direction": "Outward"
  },
  "54.6091439672948:-5.87712206652731": {
    "name": "Sydenham Station",
    "lon": -5.87712206652731,
    "code": "54.6091439672948:-5.87712206652731",
    "street": "Inverary Drive",
    "lat": 54.6091439672948,
    "direction": "Inward"
  },
  "54.5841148045752:-5.92234286822906": {
    "name": "Ormeau Road(Agincourt Avenue)",
    "lon": -5.92234286822906,
    "code": "54.5841148045752:-5.92234286822906",
    "street": "Ormeau Road",
    "lat": 54.5841148045752,
    "direction": "Outward"
  },
  "54.6183819997316:-5.94857351893922": {
    "name": "Elimgrove Street",
    "lon": -5.94857351893922,
    "code": "54.6183819997316:-5.94857351893922",
    "street": "Cliftonville Road",
    "lat": 54.6183819997316,
    "direction": "Outward"
  },
  "54.564215244515:-6.00411332232012": {
    "name": "Blacks Road(Brooke Drive)",
    "lon": -6.00411332232012,
    "code": "54.564215244515:-6.00411332232012",
    "street": "Blacks Road",
    "lat": 54.564215244515,
    "direction": "Other"
  },
  "54.6129483528402:-5.86303770053107": {
    "name": "Blanchflower Park",
    "lon": -5.86303770053107,
    "code": "54.6129483528402:-5.86303770053107",
    "street": "Hollywood Road",
    "lat": 54.6129483528402,
    "direction": "Outward"
  },
  "54.5580731314604:-5.95857571034003": {
    "name": "Upper Malone Road(House Of Sport)",
    "lon": -5.95857571034003,
    "code": "54.5580731314604:-5.95857571034003",
    "street": "Upper Malone Road",
    "lat": 54.5580731314604,
    "direction": "Inward"
  },
  "54.580545776716:-5.9353477609206": {
    "name": "Ashby Building's",
    "lon": -5.9353477609206,
    "code": "54.580545776716:-5.9353477609206",
    "street": "Stranmillis Road",
    "lat": 54.580545776716,
    "direction": "Outward"
  },
  "54.5644605262362:-6.00591038317494": {
    "name": "Blacks Road(Blacks Court)",
    "lon": -6.00591038317494,
    "code": "54.5644605262362:-6.00591038317494",
    "street": "Blacks Road",
    "lat": 54.5644605262362,
    "direction": "Other"
  },
  "54.6466636759305:-5.92101145021523": {
    "name": "Catherine Court",
    "lon": -5.92101145021523,
    "code": "54.6466636759305:-5.92101145021523",
    "street": "Whitewell Road",
    "lat": 54.6466636759305,
    "direction": "Outward"
  },
  "54.6261805649516:-5.93797591714367": {
    "name": "Antrim Road(Salisbury Avenue)",
    "lon": -5.93797591714367,
    "code": "54.6261805649516:-5.93797591714367",
    "street": "Antrim Road",
    "lat": 54.6261805649516,
    "direction": "Outward"
  },
  "54.6145785703064:-5.93678252030209": {
    "name": "Cliftonville Road",
    "lon": -5.93678252030209,
    "code": "54.6145785703064:-5.93678252030209",
    "street": "Antrim Road",
    "lat": 54.6145785703064,
    "direction": "Inward"
  },
  "54.6105514641048:-5.96319329085706": {
    "name": "Mount Eden Court",
    "lon": -5.96319329085706,
    "code": "54.6105514641048:-5.96319329085706",
    "street": "Woodvale Road",
    "lat": 54.6105514641048,
    "direction": "Inward"
  },
  "54.5998967504128:-5.93834551103644": {
    "name": "Barrack Street",
    "lon": -5.93834551103644,
    "code": "54.5998967504128:-5.93834551103644",
    "street": "Divis Street",
    "lat": 54.5998967504128,
    "direction": "Inward"
  },
  "54.6335368846328:-5.92312189441369": {
    "name": "Lowwood Park",
    "lon": -5.92312189441369,
    "code": "54.6335368846328:-5.92312189441369",
    "street": "Shore Road",
    "lat": 54.6335368846328,
    "direction": "Outward"
  },
  "54.642876377178:-5.93596865439923": {
    "name": "Downview Lodge",
    "lon": -5.93596865439923,
    "code": "54.642876377178:-5.93596865439923",
    "street": "Antrim Road",
    "lat": 54.642876377178,
    "direction": "Outward"
  },
  "54.60085169287:-5.92378077008179": {
    "name": "Queens Square",
    "lon": -5.92378077008179,
    "code": "54.60085169287:-5.92378077008179",
    "street": "Queens Square",
    "lat": 54.60085169287,
    "direction": "Outward"
  },
  "54.6081625576329:-5.87547048360006": {
    "name": "Station Road",
    "lon": -5.87547048360006,
    "code": "54.6081625576329:-5.87547048360006",
    "street": "Station Road",
    "lat": 54.6081625576329,
    "direction": "Inward"
  },
  "54.6423469858178:-5.93601097955883": {
    "name": "Downview Lodge",
    "lon": -5.93601097955883,
    "code": "54.6423469858178:-5.93601097955883",
    "street": "Antrim Road",
    "lat": 54.6423469858178,
    "direction": "Inward"
  },
  "54.6168018620515:-5.95342149489515": {
    "name": "Marrowbone Park",
    "lon": -5.95342149489515,
    "code": "54.6168018620515:-5.95342149489515",
    "street": "Oldpark Road",
    "lat": 54.6168018620515,
    "direction": "Outward"
  },
  "54.6105558894255:-5.96345622229635": {
    "name": "Mount Eden Court",
    "lon": -5.96345622229635,
    "code": "54.6105558894255:-5.96345622229635",
    "street": "Woodvale Road",
    "lat": 54.6105558894255,
    "direction": "Outward"
  },
  "54.5881334778499:-5.97011414165492": {
    "name": "Falls Road(City Cemetry)",
    "lon": -5.97011414165492,
    "code": "54.5881334778499:-5.97011414165492",
    "street": "Falls Road",
    "lat": 54.5881334778499,
    "direction": "Outward"
  },
  "54.5626441778331:-5.97768942111851": {
    "name": "Scilly Park",
    "lon": -5.97768942111851,
    "code": "54.5626441778331:-5.97768942111851",
    "street": "Scilly Park",
    "lat": 54.5626441778331,
    "direction": "Outward"
  },
  "54.5649992657003:-5.97667598964981": {
    "name": "Beechmount Park",
    "lon": -5.97667598964981,
    "code": "54.5649992657003:-5.97667598964981",
    "street": "Upper Lisburn Road",
    "lat": 54.5649992657003,
    "direction": "Inward"
  },
  "54.6025918471213:-5.8821371563978": {
    "name": "Parkgate Avenue",
    "lon": -5.8821371563978,
    "code": "54.6025918471213:-5.8821371563978",
    "street": "Connsbrook Avenue",
    "lat": 54.6025918471213,
    "direction": "Inward"
  },
  "54.5804640564381:-5.92061064788284": {
    "name": "Candahar Street",
    "lon": -5.92061064788284,
    "code": "54.5804640564381:-5.92061064788284",
    "street": "Ormeau Road",
    "lat": 54.5804640564381,
    "direction": "Outward"
  },
  "54.5947876096858:-5.85735088936172": {
    "name": "Knock Road",
    "lon": -5.85735088936172,
    "code": "54.5947876096858:-5.85735088936172",
    "street": "Upper Newtownards Road",
    "lat": 54.5947876096858,
    "direction": "Outward"
  },
  "54.6057331026553:-5.93337613492074": {
    "name": "Clifton Street",
    "lon": -5.93337613492074,
    "code": "54.6057331026553:-5.93337613492074",
    "street": "Clifton Street",
    "lat": 54.6057331026553,
    "direction": "Outward"
  },
  "54.6213813017329:-5.9848401164839": {
    "name": "Glencairn(Forthriver Road)",
    "lon": -5.9848401164839,
    "code": "54.6213813017329:-5.9848401164839",
    "street": "Forthriver Road",
    "lat": 54.6213813017329,
    "direction": "Terminal"
  },
  "54.5983349487928:-5.89357769607267": {
    "name": "Ribble Street",
    "lon": -5.89357769607267,
    "code": "54.5983349487928:-5.89357769607267",
    "street": "Newtownards Road",
    "lat": 54.5983349487928,
    "direction": "Outward"
  },
  "54.618225337294:-5.85303781556337": {
    "name": "Knocknagoney Avenue",
    "lon": -5.85303781556337,
    "code": "54.618225337294:-5.85303781556337",
    "street": "KnocknagoneyRoad",
    "lat": 54.618225337294,
    "direction": "Terminal"
  },
  "54.6071066097582:-5.9359378380014": {
    "name": "Carlisle Circus(Clifton Street)",
    "lon": -5.9359378380014,
    "code": "54.6071066097582:-5.9359378380014",
    "street": "Clifton Street",
    "lat": 54.6071066097582,
    "direction": "Outward"
  },
  "54.6324287123412:-5.92294607393762": {
    "name": "Lowwood Park",
    "lon": -5.92294607393762,
    "code": "54.6324287123412:-5.92294607393762",
    "street": "Shore Road",
    "lat": 54.6324287123412,
    "direction": "Inward"
  },
  "54.5873446922904:-5.97129821506187": {
    "name": "Falls Road(City Cemetry)",
    "lon": -5.97129821506187,
    "code": "54.5873446922904:-5.97129821506187",
    "street": "Falls Road",
    "lat": 54.5873446922904,
    "direction": "Inward"
  },
  "54.5768629709071:-5.98065067852698": {
    "name": "Fruithill Park",
    "lon": -5.98065067852698,
    "code": "54.5768629709071:-5.98065067852698",
    "street": "Andersonstown Road",
    "lat": 54.5768629709071,
    "direction": "Inward"
  },
  "54.5841386933877:-5.94319471701536": {
    "name": "Ulsterville Ave",
    "lon": -5.94319471701536,
    "code": "54.5841386933877:-5.94319471701536",
    "street": "Lisburn Road",
    "lat": 54.5841386933877,
    "direction": "Inward"
  },
  "54.6006283040984:-5.91862318320574": {
    "name": "Station Street",
    "lon": -5.91862318320574,
    "code": "54.6006283040984:-5.91862318320574",
    "street": "Middlepath Street",
    "lat": 54.6006283040984,
    "direction": "Outward"
  },
  "54.6580948323889:-5.93584780172785": {
    "name": "Fairyknowe Park",
    "lon": -5.93584780172785,
    "code": "54.6580948323889:-5.93584780172785",
    "street": "Whitewell Road",
    "lat": 54.6580948323889,
    "direction": "Inward"
  },
  "54.604892276482:-5.88009844701435": {
    "name": "Connsbrook Avenue/Larkfield",
    "lon": -5.88009844701435,
    "code": "54.604892276482:-5.88009844701435",
    "street": "Connsbrook Avenue",
    "lat": 54.604892276482,
    "direction": "Outward"
  },
  "54.6035608766509:-5.94193665451743": {
    "name": "Lower Shankill",
    "lon": -5.94193665451743,
    "code": "54.6035608766509:-5.94193665451743",
    "street": "Shankill Road",
    "lat": 54.6035608766509,
    "direction": "Outward"
  },
  "54.5709248172888:-6.01654346711266": {
    "name": "Falcarragh",
    "lon": -6.01654346711266,
    "code": "54.5709248172888:-6.01654346711266",
    "street": "Suffolk Road",
    "lat": 54.5709248172888,
    "direction": "Inward"
  },
  "54.5962963053891:-5.92850018133796": {
    "name": "Donegal Square East",
    "lon": -5.92850018133796,
    "code": "54.5962963053891:-5.92850018133796",
    "street": "Donegall Square East",
    "lat": 54.5962963053891,
    "direction": "CityCentre"
  },
  "54.5580958088663:-5.9824133522798": {
    "name": "Finaghy Road South Youth Club",
    "lon": -5.9824133522798,
    "code": "54.5580958088663:-5.9824133522798",
    "street": "Finaghy Road South",
    "lat": 54.5580958088663,
    "direction": "Outward"
  },
  "54.5945730293015:-5.84224419763794": {
    "name": "Stormont",
    "lon": -5.84224419763794,
    "code": "54.5945730293015:-5.84224419763794",
    "street": "Upper Newtownards Road",
    "lat": 54.5945730293015,
    "direction": "Outward"
  },
  "54.6103942918405:-5.8746421147576": {
    "name": "Inverary Drive",
    "lon": -5.8746421147576,
    "code": "54.6103942918405:-5.8746421147576",
    "street": "Inverary Drive",
    "lat": 54.6103942918405,
    "direction": "Outward"
  },
  "54.6061992711649:-5.92439073709906": {
    "name": "Nelson Street (M3)",
    "lon": -5.92439073709906,
    "code": "54.6061992711649:-5.92439073709906",
    "street": "Nelson Street",
    "lat": 54.6061992711649,
    "direction": "Inward"
  },
  "54.5666917652806:-5.99738966454781": {
    "name": "Ladybrook Avenue",
    "lon": -5.99738966454781,
    "code": "54.5666917652806:-5.99738966454781",
    "street": "Ladybrook Park",
    "lat": 54.5666917652806,
    "direction": "Outward"
  },
  "54.6038293987614:-5.88097399746534": {
    "name": "Strandburn Drive",
    "lon": -5.88097399746534,
    "code": "54.6038293987614:-5.88097399746534",
    "street": "Connsbrook Avenue",
    "lat": 54.6038293987614,
    "direction": "Inward"
  },
  "54.6155702747433:-5.93750640106914": {
    "name": "Antrim Road (Eia Street)",
    "lon": -5.93750640106914,
    "code": "54.6155702747433:-5.93750640106914",
    "street": "Antrim Road",
    "lat": 54.6155702747433,
    "direction": "Outward"
  },
  "54.6168110865139:-5.94495238799353": {
    "name": "Glenard Brook",
    "lon": -5.94495238799353,
    "code": "54.6168110865139:-5.94495238799353",
    "street": "Cliftonville Road",
    "lat": 54.6168110865139,
    "direction": "Inward"
  },
  "54.6302675890211:-5.96872773606006": {
    "name": "Clareglen",
    "lon": -5.96872773606006,
    "code": "54.6302675890211:-5.96872773606006",
    "street": "Ballysillan Park",
    "lat": 54.6302675890211,
    "direction": "Inward"
  },
  "54.5682410818966:-6.01342652430256": {
    "name": "Suffolk Road(Woodbourne)",
    "lon": -6.01342652430256,
    "code": "54.5682410818966:-6.01342652430256",
    "street": "Suffolk Road",
    "lat": 54.5682410818966,
    "direction": "Inward"
  },
  "54.5943272312953:-5.93420158009195": {
    "name": "Great Northern Mall",
    "lon": -5.93420158009195,
    "code": "54.5943272312953:-5.93420158009195",
    "street": "Great Victoria Street",
    "lat": 54.5943272312953,
    "direction": "Outward"
  },
  "54.6089624451703:-5.92938912197791": {
    "name": "North Queen Street (Yorkgate)",
    "lon": -5.92938912197791,
    "code": "54.6089624451703:-5.92938912197791",
    "street": "North Queen Street",
    "lat": 54.6089624451703,
    "direction": "Outward"
  },
  "54.5934269448699:-5.90639541739731": {
    "name": "Woodstock Link",
    "lon": -5.90639541739731,
    "code": "54.5934269448699:-5.90639541739731",
    "street": "Woodstock Link",
    "lat": 54.5934269448699,
    "direction": "Outward"
  },
  "54.5856827466476:-5.97399528407971": {
    "name": "Rossa House",
    "lon": -5.97399528407971,
    "code": "54.5856827466476:-5.97399528407971",
    "street": "Falls Road",
    "lat": 54.5856827466476,
    "direction": "Inward"
  },
  "54.5596871110179:-5.97494476498908": {
    "name": "Scilly Park(Priory Park)",
    "lon": -5.97494476498908,
    "code": "54.5596871110179:-5.97494476498908",
    "street": "Scilly Park",
    "lat": 54.5596871110179,
    "direction": "Outward"
  },
  "54.5768902916427:-5.91813239079665": {
    "name": "Ulidia",
    "lon": -5.91813239079665,
    "code": "54.5768902916427:-5.91813239079665",
    "street": "Ormeau Road",
    "lat": 54.5768902916427,
    "direction": "Inward"
  },
  "54.5850056894675:-5.92608765760674": {
    "name": "Dudley Street",
    "lon": -5.92608765760674,
    "code": "54.5850056894675:-5.92608765760674",
    "street": "University Avenue",
    "lat": 54.5850056894675,
    "direction": "Inward"
  },
  "54.57617557222:-6.0173091318752": {
    "name": "St. Oliver Plunkett",
    "lon": -6.0173091318752,
    "code": "54.57617557222:-6.0173091318752",
    "street": "Glen Road",
    "lat": 54.57617557222,
    "direction": "Outward"
  },
  "54.565209744468:-5.97583059610429": {
    "name": "Balmoral Park",
    "lon": -5.97583059610429,
    "code": "54.565209744468:-5.97583059610429",
    "street": "Upper Lisburn Road",
    "lat": 54.565209744468,
    "direction": "Outward"
  },
  "54.5632303812167:-5.98104647680144": {
    "name": "Donegall Park",
    "lon": -5.98104647680144,
    "code": "54.5632303812167:-5.98104647680144",
    "street": "Upper Lisburn Road",
    "lat": 54.5632303812167,
    "direction": "Inward"
  },
  "54.6206991719931:-5.93794359982827": {
    "name": "Alexandra Park Avenue",
    "lon": -5.93794359982827,
    "code": "54.6206991719931:-5.93794359982827",
    "street": "Antrim Road",
    "lat": 54.6206991719931,
    "direction": "Inward"
  },
  "54.5723745148094:-5.91469741184405": {
    "name": "Nazareth House",
    "lon": -5.91469741184405,
    "code": "54.5723745148094:-5.91469741184405",
    "street": "Ormeau Road",
    "lat": 54.5723745148094,
    "direction": "Outward"
  },
  "54.5919571343673:-5.96293033413299": {
    "name": "Beechmount",
    "lon": -5.96293033413299,
    "code": "54.5919571343673:-5.96293033413299",
    "street": "Falls Road",
    "lat": 54.5919571343673,
    "direction": "Inward"
  },
  "54.5981759558358:-5.88755062038443": {
    "name": "Holywood Arches",
    "lon": -5.88755062038443,
    "code": "54.5981759558358:-5.88755062038443",
    "street": "Hollywood Road",
    "lat": 54.5981759558358,
    "direction": "Outward"
  },
  "54.5955298679145:-5.90953703393899": {
    "name": "Short Strand / Albert Bridge Road",
    "lon": -5.90953703393899,
    "code": "54.5955298679145:-5.90953703393899",
    "street": "Albert Bridge Road",
    "lat": 54.5955298679145,
    "direction": "Inward"
  },
  "54.5835516557827:-5.98195946974964": {
    "name": "Glen Parade",
    "lon": -5.98195946974964,
    "code": "54.5835516557827:-5.98195946974964",
    "street": "Glen Road",
    "lat": 54.5835516557827,
    "direction": "Outward"
  },
  "54.5659767226325:-6.00033168750924": {
    "name": "Ladybrook Cross",
    "lon": -6.00033168750924,
    "code": "54.5659767226325:-6.00033168750924",
    "street": "Ladybrook Cross",
    "lat": 54.5659767226325,
    "direction": "Outward"
  },
  "54.578574219498:-5.93407087976881": {
    "name": "Sandhurst Drive",
    "lon": -5.93407087976881,
    "code": "54.578574219498:-5.93407087976881",
    "street": "Stranmillis Road",
    "lat": 54.578574219498,
    "direction": "Outward"
  },
  "54.5704686043082:-5.91411431625181": {
    "name": "Rosetta(St John's Church)",
    "lon": -5.91411431625181,
    "code": "54.5704686043082:-5.91411431625181",
    "street": "Ormeau Road",
    "lat": 54.5704686043082,
    "direction": "Inward"
  },
  "54.5559292360032:-5.98072713521114": {
    "name": "Erinvale Ave",
    "lon": -5.98072713521114,
    "code": "54.5559292360032:-5.98072713521114",
    "street": "Erinvale Ave",
    "lat": 54.5559292360032,
    "direction": "Terminal"
  },
  "54.5869830258385:-5.93242298036854": {
    "name": "Botanic Avenue",
    "lon": -5.93242298036854,
    "code": "54.5869830258385:-5.93242298036854",
    "street": "Botanic Avenue",
    "lat": 54.5869830258385,
    "direction": "Outward"
  },
  "54.6292621672061:-5.92324689645478": {
    "name": "Fortwilliam",
    "lon": -5.92324689645478,
    "code": "54.6292621672061:-5.92324689645478",
    "street": "Shore Road",
    "lat": 54.6292621672061,
    "direction": "Outward"
  },
  "54.6596193925936:-5.94307017128147": {
    "name": "Bellevue Park",
    "lon": -5.94307017128147,
    "code": "54.6596193925936:-5.94307017128147",
    "street": "Antrim Road",
    "lat": 54.6596193925936,
    "direction": "Outward"
  },
  "54.5905366375506:-5.90241267270327": {
    "name": "Willowfield",
    "lon": -5.90241267270327,
    "code": "54.5905366375506:-5.90241267270327",
    "street": "Woodstock Road",
    "lat": 54.5905366375506,
    "direction": "Outward"
  },
  "54.5790040517147:-6.00354492622716": {
    "name": "Hamill Grove",
    "lon": -6.00354492622716,
    "code": "54.5790040517147:-6.00354492622716",
    "street": "Glen Road",
    "lat": 54.5790040517147,
    "direction": "Inward"
  },
  "54.5717560137988:-5.99448133915878": {
    "name": "St.Michaels",
    "lon": -5.99448133915878,
    "code": "54.5717560137988:-5.99448133915878",
    "street": "Finaghy Road North",
    "lat": 54.5717560137988,
    "direction": "Outward"
  },
  "54.5805606427198:-5.94889719273476": {
    "name": "Windsor Avenue",
    "lon": -5.94889719273476,
    "code": "54.5805606427198:-5.94889719273476",
    "street": "Lisburn Road",
    "lat": 54.5805606427198,
    "direction": "Outward"
  },
  "54.5660302733916:-5.97385709534388": {
    "name": "Kingscourt",
    "lon": -5.97385709534388,
    "code": "54.5660302733916:-5.97385709534388",
    "street": "Upper Lisburn Road",
    "lat": 54.5660302733916,
    "direction": "Inward"
  },
  "54.5731670121467:-5.94684059727072": {
    "name": "Malone Road(Notting Hill)",
    "lon": -5.94684059727072,
    "code": "54.5731670121467:-5.94684059727072",
    "street": "Malone Road",
    "lat": 54.5731670121467,
    "direction": "Inward"
  },
  "54.6077461262902:-5.97484941662441": {
    "name": "Lyndhurst Gardens",
    "lon": -5.97484941662441,
    "code": "54.6077461262902:-5.97484941662441",
    "street": "Ballygomartin Road",
    "lat": 54.6077461262902,
    "direction": "Inward"
  },
  "54.5744437423695:-6.00270081102428": {
    "name": "Rosgoill Park",
    "lon": -6.00270081102428,
    "code": "54.5744437423695:-6.00270081102428",
    "street": "Shaws Road",
    "lat": 54.5744437423695,
    "direction": "Outward"
  },
  "54.5993726323221:-5.9015868525197": {
    "name": "Templemore Avenue",
    "lon": -5.9015868525197,
    "code": "54.5993726323221:-5.9015868525197",
    "street": "Newtownards Road",
    "lat": 54.5993726323221,
    "direction": "Outward"
  },
  "54.6189271265804:-5.98206620018154": {
    "name": "Glencairn Mission Hall",
    "lon": -5.98206620018154,
    "code": "54.6189271265804:-5.98206620018154",
    "street": "Forthriver Road",
    "lat": 54.6189271265804,
    "direction": "Inward"
  },
  "54.6182529376847:-5.97183472102615": {
    "name": "Abbeydale Park",
    "lon": -5.97183472102615,
    "code": "54.6182529376847:-5.97183472102615",
    "street": "Crumlin Road",
    "lat": 54.6182529376847,
    "direction": "Outward"
  },
  "54.5782244951497:-6.00639807847033": {
    "name": "Rosnareen",
    "lon": -6.00639807847033,
    "code": "54.5782244951497:-6.00639807847033",
    "street": "Glen Road",
    "lat": 54.5782244951497,
    "direction": "Outward"
  },
  "54.6000352626149:-5.94437400730728": {
    "name": "St.Comgall's",
    "lon": -5.94437400730728,
    "code": "54.6000352626149:-5.94437400730728",
    "street": "Falls Road",
    "lat": 54.6000352626149,
    "direction": "Outward"
  },
  "54.5575793115635:-5.96232612404577": {
    "name": "Upper Malone Road(Greenview Park)",
    "lon": -5.96232612404577,
    "code": "54.5575793115635:-5.96232612404577",
    "street": "Upper Malone Road",
    "lat": 54.5575793115635,
    "direction": "Outward"
  },
  "54.6273109099571:-5.9858941267752": {
    "name": "Wolfhill Centre",
    "lon": -5.9858941267752,
    "code": "54.6273109099571:-5.9858941267752",
    "street": "Ligoniel Road",
    "lat": 54.6273109099571,
    "direction": "Outward"
  },
  "54.5629347809087:-6.00111454418946": {
    "name": "Blacks Road(Brook Park)",
    "lon": -6.00111454418946,
    "code": "54.5629347809087:-6.00111454418946",
    "street": "Blacks Road",
    "lat": 54.5629347809087,
    "direction": "Other"
  },
  "54.5944889667251:-5.84458519576475": {
    "name": "Stormont Park",
    "lon": -5.84458519576475,
    "code": "54.5944889667251:-5.84458519576475",
    "street": "Upper Newtownards Road",
    "lat": 54.5944889667251,
    "direction": "Outward"
  },
  "54.6100784910061:-5.87354404202172": {
    "name": "Inverary Playing Fields",
    "lon": -5.87354404202172,
    "code": "54.6100784910061:-5.87354404202172",
    "street": "Inverary Avenue",
    "lat": 54.6100784910061,
    "direction": "Inward"
  },
  "54.6121044714558:-5.92922953582426": {
    "name": "North City Business Centre",
    "lon": -5.92922953582426,
    "code": "54.6121044714558:-5.92922953582426",
    "street": "Duncairn Gardens",
    "lat": 54.6121044714558,
    "direction": "Outward"
  },
  "54.6158034197852:-5.937479122422": {
    "name": "Antrim Road (Eia Street)",
    "lon": -5.937479122422,
    "code": "54.6158034197852:-5.937479122422",
    "street": "Antrim Road",
    "lat": 54.6158034197852,
    "direction": "Inward"
  },
  "54.5766104516945:-6.00932274873706": {
    "name": "Shaws Road(Lenadoon Avenue)",
    "lon": -6.00932274873706,
    "code": "54.5766104516945:-6.00932274873706",
    "street": "Shaws Road",
    "lat": 54.5766104516945,
    "direction": "Outward"
  },
  "54.5996073694905:-5.93823633498758": {
    "name": "Barrack Street",
    "lon": -5.93823633498758,
    "code": "54.5996073694905:-5.93823633498758",
    "street": "Divis Street",
    "lat": 54.5996073694905,
    "direction": "Outward"
  },
  "54.6116468234743:-5.92768929340762": {
    "name": "North City Business Centre",
    "lon": -5.92768929340762,
    "code": "54.6116468234743:-5.92768929340762",
    "street": "Duncairn Gardens",
    "lat": 54.6116468234743,
    "direction": "Inward"
  },
  "54.6001167077204:-5.88446326044686": {
    "name": "Glendale Court",
    "lon": -5.88446326044686,
    "code": "54.6001167077204:-5.88446326044686",
    "street": "Connsbrook Avenue",
    "lat": 54.6001167077204,
    "direction": "Inward"
  },
  "54.6038599413288:-5.9294470139826": {
    "name": "Interpoint",
    "lon": -5.9294470139826,
    "code": "54.6038599413288:-5.9294470139826",
    "street": "York Street",
    "lat": 54.6038599413288,
    "direction": "Inward"
  },
  "54.5948103279859:-5.85863403177441": {
    "name": "Ormiston",
    "lon": -5.85863403177441,
    "code": "54.5948103279859:-5.85863403177441",
    "street": "Upper Newtownards Road",
    "lat": 54.5948103279859,
    "direction": "Outward"
  },
  "54.5878548816408:-5.93296670171942": {
    "name": "Botanic Avenue",
    "lon": -5.93296670171942,
    "code": "54.5878548816408:-5.93296670171942",
    "street": "Botanic Avenue",
    "lat": 54.5878548816408,
    "direction": "Inward"
  },
  "54.6178591883214:-5.9543128283444": {
    "name": "Deerpark Road(The Park)",
    "lon": -5.9543128283444,
    "code": "54.6178591883214:-5.9543128283444",
    "street": "Oldpark Road",
    "lat": 54.6178591883214,
    "direction": "Outward"
  },
  "54.6204295737106:-5.95275934102294": {
    "name": "Kingsmere Avenue",
    "lon": -5.95275934102294,
    "code": "54.6204295737106:-5.95275934102294",
    "street": "Cliftonville Road",
    "lat": 54.6204295737106,
    "direction": "Outward"
  },
  "54.5696855368952:-5.99261911231847": {
    "name": "Finaghy Road North",
    "lon": -5.99261911231847,
    "code": "54.5696855368952:-5.99261911231847",
    "street": "Finaghy Road North",
    "lat": 54.5696855368952,
    "direction": "Outward"
  },
  "54.5710786933291:-5.94714665408262": {
    "name": "Malone Road (Cranmore Park)",
    "lon": -5.94714665408262,
    "code": "54.5710786933291:-5.94714665408262",
    "street": "Malone Road",
    "lat": 54.5710786933291,
    "direction": "Outward"
  },
  "54.621844907797:-5.92350103326794": {
    "name": "Skegoneill Ave",
    "lon": -5.92350103326794,
    "code": "54.621844907797:-5.92350103326794",
    "street": "Shore Road",
    "lat": 54.621844907797,
    "direction": "Outward"
  },
  "54.6403278535124:-5.92302343242461": {
    "name": "Parkmount",
    "lon": -5.92302343242461,
    "code": "54.6403278535124:-5.92302343242461",
    "street": "Shore Road",
    "lat": 54.6403278535124,
    "direction": "Inward"
  },
  "54.5977749801598:-5.93037491191217": {
    "name": "Donegal Place",
    "lon": -5.93037491191217,
    "code": "54.5977749801598:-5.93037491191217",
    "street": "Donegall Place",
    "lat": 54.5977749801598,
    "direction": "Outward"
  },
  "54.6028812070437:-5.93105985952116": {
    "name": "Central Library",
    "lon": -5.93105985952116,
    "code": "54.6028812070437:-5.93105985952116",
    "street": "Royal Avenue",
    "lat": 54.6028812070437,
    "direction": "Outward"
  },
  "54.5982304544358:-5.89376879387673": {
    "name": "Hunt Street",
    "lon": -5.89376879387673,
    "code": "54.5982304544358:-5.89376879387673",
    "street": "Newtownards Road",
    "lat": 54.5982304544358,
    "direction": "Inward"
  },
  "54.6085695919283:-5.92219589377531": {
    "name": "Nelson Street (Dock Street)",
    "lon": -5.92219589377531,
    "code": "54.6085695919283:-5.92219589377531",
    "street": "Nelson Street",
    "lat": 54.6085695919283,
    "direction": "Inward"
  },
  "54.5692318242315:-6.00756395719422": {
    "name": "Suffolk Library",
    "lon": -6.00756395719422,
    "code": "54.5692318242315:-6.00756395719422",
    "street": "Stewartstown Road",
    "lat": 54.5692318242315,
    "direction": "Outward"
  },
  "54.5698222366183:-5.96477708065512": {
    "name": "Malone Park",
    "lon": -5.96477708065512,
    "code": "54.5698222366183:-5.96477708065512",
    "street": "Lisburn Road",
    "lat": 54.5698222366183,
    "direction": "Inward"
  },
  "54.6083808443287:-5.93636865380594": {
    "name": "Carlisle Circus(Antrim Road)",
    "lon": -5.93636865380594,
    "code": "54.6083808443287:-5.93636865380594",
    "street": "Antrim Road",
    "lat": 54.6083808443287,
    "direction": "Inward"
  },
  "54.6282680134498:-5.93867556112928": {
    "name": "Firmount",
    "lon": -5.93867556112928,
    "code": "54.6282680134498:-5.93867556112928",
    "street": "Antrim Road",
    "lat": 54.6282680134498,
    "direction": "Inward"
  },
  "54.5608191378285:-5.9530581344759": {
    "name": "Malone Road (Mount Eden Park)",
    "lon": -5.9530581344759,
    "code": "54.5608191378285:-5.9530581344759",
    "street": "Malone Road",
    "lat": 54.5608191378285,
    "direction": "Outward"
  },
  "54.5747314073449:-6.02404502675313": {
    "name": "Suffolk Heights",
    "lon": -6.02404502675313,
    "code": "54.5747314073449:-6.02404502675313",
    "street": "Suffolk Road",
    "lat": 54.5747314073449,
    "direction": "Inward"
  },
  "54.6039286868352:-5.8809997926259": {
    "name": "Strand School",
    "lon": -5.8809997926259,
    "code": "54.6039286868352:-5.8809997926259",
    "street": "Connsbrook Avenue",
    "lat": 54.6039286868352,
    "direction": "Outward"
  },
  "54.5968973174961:-5.89615882297028": {
    "name": "Hornby Street",
    "lon": -5.89615882297028,
    "code": "54.5968973174961:-5.89615882297028",
    "street": "Albert Bridge Road",
    "lat": 54.5968973174961,
    "direction": "Inward"
  },
  "54.607189222244:-5.93077935638057": {
    "name": "Great George's Street",
    "lon": -5.93077935638057,
    "code": "54.607189222244:-5.93077935638057",
    "street": "North Queen Street",
    "lat": 54.607189222244,
    "direction": "Inward"
  },
  "54.5837754218942:-5.88667181151244": {
    "name": "Trigo Parade",
    "lon": -5.88667181151244,
    "code": "54.5837754218942:-5.88667181151244",
    "street": "Castlereagh Road",
    "lat": 54.5837754218942,
    "direction": "Inward"
  },
  "54.6088660563024:-5.92900704147737": {
    "name": "North Queen Street (Yorkgate)",
    "lon": -5.92900704147737,
    "code": "54.6088660563024:-5.92900704147737",
    "street": "North Queen Street",
    "lat": 54.6088660563024,
    "direction": "Inward"
  },
  "54.5721453707222:-6.00063270189518": {
    "name": "St. Genieves",
    "lon": -6.00063270189518,
    "code": "54.5721453707222:-6.00063270189518",
    "street": "Stewartstown Road",
    "lat": 54.5721453707222,
    "direction": "Outward"
  },
  "54.5950085994092:-5.86527743764325": {
    "name": "Astoria Gardens",
    "lon": -5.86527743764325,
    "code": "54.5950085994092:-5.86527743764325",
    "street": "Upper Newtownards Road",
    "lat": 54.5950085994092,
    "direction": "Inward"
  },
  "54.5825777892426:-5.93648248485574": {
    "name": "Ulster Museun",
    "lon": -5.93648248485574,
    "code": "54.5825777892426:-5.93648248485574",
    "street": "Stranmillis Road",
    "lat": 54.5825777892426,
    "direction": "Inward"
  },
  "54.5799570279471:-5.99922919173713": {
    "name": "Cbs",
    "lon": -5.99922919173713,
    "code": "54.5799570279471:-5.99922919173713",
    "street": "Glen Road",
    "lat": 54.5799570279471,
    "direction": "Outward"
  },
  "54.5787971646012:-5.97971974765695": {
    "name": "Westwood Centre",
    "lon": -5.97971974765695,
    "code": "54.5787971646012:-5.97971974765695",
    "street": "Andersonstown Road",
    "lat": 54.5787971646012,
    "direction": "Inward"
  },
  "54.5925505742741:-5.88391178468333": {
    "name": "Litchfield Avenue",
    "lon": -5.88391178468333,
    "code": "54.5925505742741:-5.88391178468333",
    "street": "Bloomfield Road",
    "lat": 54.5925505742741,
    "direction": "Inward"
  },
  "54.6124237218218:-5.9300337790906": {
    "name": "Adam Street",
    "lon": -5.9300337790906,
    "code": "54.6124237218218:-5.9300337790906",
    "street": "Duncairn Gardens",
    "lat": 54.6124237218218,
    "direction": "Outward"
  },
  "54.5717065859807:-5.93441840446792": {
    "name": "Sharman Road",
    "lon": -5.93441840446792,
    "code": "54.5717065859807:-5.93441840446792",
    "street": "Stranmillis Road",
    "lat": 54.5717065859807,
    "direction": "Outward"
  },
  "54.611765575269:-5.94783834854125": {
    "name": "Hillview Court",
    "lon": -5.94783834854125,
    "code": "54.611765575269:-5.94783834854125",
    "street": "Oldpark Road",
    "lat": 54.611765575269,
    "direction": "Inward"
  },
  "54.5955386429646:-5.91786160604944": {
    "name": "East Bridge Street (Central Station)",
    "lon": -5.91786160604944,
    "code": "54.5955386429646:-5.91786160604944",
    "street": "East Bridge Street",
    "lat": 54.5955386429646,
    "direction": "Inward"
  },
  "54.6302345566827:-5.93860703364635": {
    "name": "Chichester Avenue",
    "lon": -5.93860703364635,
    "code": "54.6302345566827:-5.93860703364635",
    "street": "Antrim Road",
    "lat": 54.6302345566827,
    "direction": "Inward"
  },
  "54.6506022227346:-5.92590813960537": {
    "name": "Vandyck Gardens",
    "lon": -5.92590813960537,
    "code": "54.6506022227346:-5.92590813960537",
    "street": "Whitewell Road",
    "lat": 54.6506022227346,
    "direction": "Outward"
  },
  "54.5842480941477:-5.93642896530139": {
    "name": "Queen's University",
    "lon": -5.93642896530139,
    "code": "54.5842480941477:-5.93642896530139",
    "street": "University Road",
    "lat": 54.5842480941477,
    "direction": "Outward"
  },
  "54.6242015568903:-5.97401621010054": {
    "name": "Tedburn Park",
    "lon": -5.97401621010054,
    "code": "54.6242015568903:-5.97401621010054",
    "street": "Bilston Road",
    "lat": 54.6242015568903,
    "direction": "Outward"
  },
  "54.6031397032633:-5.93672674458468": {
    "name": "Peter's Hill",
    "lon": -5.93672674458468,
    "code": "54.6031397032633:-5.93672674458468",
    "street": "Peter's Hill",
    "lat": 54.6031397032633,
    "direction": "Outward"
  },
  "54.6110228249315:-5.86542968374017": {
    "name": "Ashfield Girls",
    "lon": -5.86542968374017,
    "code": "54.6110228249315:-5.86542968374017",
    "street": "Hollywood Road",
    "lat": 54.6110228249315,
    "direction": "Outward"
  },
  "54.5970834932097:-5.93144679246222": {
    "name": "Donegall Square West",
    "lon": -5.93144679246222,
    "code": "54.5970834932097:-5.93144679246222",
    "street": "Donegall Square West",
    "lat": 54.5970834932097,
    "direction": "CityCentre"
  },
  "54.6215492240539:-5.95521146508569": {
    "name": "Cliftonville Circus",
    "lon": -5.95521146508569,
    "code": "54.6215492240539:-5.95521146508569",
    "street": "Oldpark Road",
    "lat": 54.6215492240539,
    "direction": "Outward"
  },
  "54.6283968496733:-5.96487199159616": {
    "name": "Formby Park",
    "lon": -5.96487199159616,
    "code": "54.6283968496733:-5.96487199159616",
    "street": "Ballysillan Road",
    "lat": 54.6283968496733,
    "direction": "Outward"
  },
  "54.6175972125351:-5.94680159109569": {
    "name": "Chestnut Gardens",
    "lon": -5.94680159109569,
    "code": "54.6175972125351:-5.94680159109569",
    "street": "Cliftonville Road",
    "lat": 54.6175972125351,
    "direction": "Inward"
  },
  "54.6056469844915:-5.95953789676102": {
    "name": "Mayo Street",
    "lon": -5.95953789676102,
    "code": "54.6056469844915:-5.95953789676102",
    "street": "Shankill Road",
    "lat": 54.6056469844915,
    "direction": "Outward"
  },
  "54.5839860786767:-5.9432024088645": {
    "name": "Ulsterville Avenue",
    "lon": -5.9432024088645,
    "code": "54.5839860786767:-5.9432024088645",
    "street": "Lisburn Road",
    "lat": 54.5839860786767,
    "direction": "Outward"
  },
  "54.5853148381769:-5.93260032383529": {
    "name": "College Green",
    "lon": -5.93260032383529,
    "code": "54.5853148381769:-5.93260032383529",
    "street": "Botanic Avenue",
    "lat": 54.5853148381769,
    "direction": "Inward"
  },
  "54.5953106941185:-5.87069303063865": {
    "name": "Ballyhackamore",
    "lon": -5.87069303063865,
    "code": "54.5953106941185:-5.87069303063865",
    "street": "Upper Newtownards Road",
    "lat": 54.5953106941185,
    "direction": "Inward"
  },
  "54.5916892221527:-5.89531337714883": {
    "name": "Clara Street",
    "lon": -5.89531337714883,
    "code": "54.5916892221527:-5.89531337714883",
    "street": "Beersbridge Road",
    "lat": 54.5916892221527,
    "direction": "Inward"
  },
  "54.5694331374049:-5.99256966531283": {
    "name": "Finaghy Road North",
    "lon": -5.99256966531283,
    "code": "54.5694331374049:-5.99256966531283",
    "street": "Finaghy Road North",
    "lat": 54.5694331374049,
    "direction": "Inward"
  },
  "54.5623291302096:-5.98627053297399": {
    "name": "Finaghy Park Central",
    "lon": -5.98627053297399,
    "code": "54.5623291302096:-5.98627053297399",
    "street": "Finaghy Road North",
    "lat": 54.5623291302096,
    "direction": "Outward"
  },
  "54.5600574191634:-5.98420262251899": {
    "name": "Finaghy Road South Health Center",
    "lon": -5.98420262251899,
    "code": "54.5600574191634:-5.98420262251899",
    "street": "Finaghy Road South",
    "lat": 54.5600574191634,
    "direction": "Outward"
  },
  "54.5962568187342:-5.92252912510001": {
    "name": "St. Georges Market",
    "lon": -5.92252912510001,
    "code": "54.5962568187342:-5.92252912510001",
    "street": "May Street",
    "lat": 54.5962568187342,
    "direction": "Inward"
  },
  "54.598718528896:-5.89755050926507": {
    "name": "Dee Street",
    "lon": -5.89755050926507,
    "code": "54.598718528896:-5.89755050926507",
    "street": "Newtownards Road",
    "lat": 54.598718528896,
    "direction": "Inward"
  },
  "54.6628714907363:-5.9467496583866": {
    "name": "Antrim Road(Bellevue)",
    "lon": -5.9467496583866,
    "code": "54.6628714907363:-5.9467496583866",
    "street": "Antrim Road",
    "lat": 54.6628714907363,
    "direction": "Inward"
  },
  "54.5947397856665:-5.90437834722173": {
    "name": "Castlereagh Street(Albertbridge Road)",
    "lon": -5.90437834722173,
    "code": "54.5947397856665:-5.90437834722173",
    "street": "Castlereagh Street",
    "lat": 54.5947397856665,
    "direction": "Inward"
  },
  "54.6228671652476:-5.95876865029119": {
    "name": "Dunkeld Gardens",
    "lon": -5.95876865029119,
    "code": "54.6228671652476:-5.95876865029119",
    "street": "Oldpark Road",
    "lat": 54.6228671652476,
    "direction": "Inward"
  },
  "54.5878125945473:-5.93680565667692": {
    "name": "Fountainville Avenue",
    "lon": -5.93680565667692,
    "code": "54.5878125945473:-5.93680565667692",
    "street": "Lisburn Road",
    "lat": 54.5878125945473,
    "direction": "Outward"
  },
  "54.5942053264374:-5.82022897894946": {
    "name": "Dundonald Cemetery",
    "lon": -5.82022897894946,
    "code": "54.5942053264374:-5.82022897894946",
    "street": "Upper Newtownards Road",
    "lat": 54.5942053264374,
    "direction": "Inward"
  },
  "54.5903914205541:-5.89767020101862": {
    "name": "Clara Street",
    "lon": -5.89767020101862,
    "code": "54.5903914205541:-5.89767020101862",
    "street": "Castlereagh Road",
    "lat": 54.5903914205541,
    "direction": "Inward"
  },
  "54.5742580939701:-5.91607046293361": {
    "name": "Ballynafeigh",
    "lon": -5.91607046293361,
    "code": "54.5742580939701:-5.91607046293361",
    "street": "Ormeau Road",
    "lat": 54.5742580939701,
    "direction": "Outward"
  },
  "54.5994869309729:-5.90351541592568": {
    "name": "Tower Street",
    "lon": -5.90351541592568,
    "code": "54.5994869309729:-5.90351541592568",
    "street": "Newtownards Road",
    "lat": 54.5994869309729,
    "direction": "Inward"
  },
  "54.5740913553879:-5.98632448330939": {
    "name": "Owenvarragh Pk",
    "lon": -5.98632448330939,
    "code": "54.5740913553879:-5.98632448330939",
    "street": "Andersonstown Road",
    "lat": 54.5740913553879,
    "direction": "Inward"
  },
  "54.5525043970021:-5.97418784396109": {
    "name": "Upper Malone Road(Malone View)",
    "lon": -5.97418784396109,
    "code": "54.5525043970021:-5.97418784396109",
    "street": "Upper Malone Road",
    "lat": 54.5525043970021,
    "direction": "Outward"
  },
  "54.6278762825283:-5.92364275060882": {
    "name": "Shore Road (Safeway)",
    "lon": -5.92364275060882,
    "code": "54.6278762825283:-5.92364275060882",
    "street": "Shore Road",
    "lat": 54.6278762825283,
    "direction": "Inward"
  },
  "54.5949019315678:-5.86076462860972": {
    "name": "Greenwood  Primary",
    "lon": -5.86076462860972,
    "code": "54.5949019315678:-5.86076462860972",
    "street": "Upper Newtownards Road",
    "lat": 54.5949019315678,
    "direction": "Outward"
  },
  "54.5716217940523:-5.94738224915068": {
    "name": "Malone Road(Cranmore Park)",
    "lon": -5.94738224915068,
    "code": "54.5716217940523:-5.94738224915068",
    "street": "Malone Road",
    "lat": 54.5716217940523,
    "direction": "Inward"
  },
  "54.6279621604469:-5.96520342785904": {
    "name": "Formby Park",
    "lon": -5.96520342785904,
    "code": "54.6279621604469:-5.96520342785904",
    "street": "Ballysillan Road",
    "lat": 54.6279621604469,
    "direction": "Inward"
  },
  "54.6038789330136:-5.94637800348058": {
    "name": "Agnes Street",
    "lon": -5.94637800348058,
    "code": "54.6038789330136:-5.94637800348058",
    "street": "Shankill Road",
    "lat": 54.6038789330136,
    "direction": "Outward"
  },
  "54.6198860267996:-5.92349245895833": {
    "name": "Fife Street",
    "lon": -5.92349245895833,
    "code": "54.6198860267996:-5.92349245895833",
    "street": "Shore Road",
    "lat": 54.6198860267996,
    "direction": "Inward"
  },
  "54.5972877652456:-5.92134696716864": {
    "name": "Waterfront Hall",
    "lon": -5.92134696716864,
    "code": "54.5972877652456:-5.92134696716864",
    "street": "Oxford Street",
    "lat": 54.5972877652456,
    "direction": "Outward"
  },
  "54.5992170721336:-5.90142462606528": {
    "name": "Templemore Avenue",
    "lon": -5.90142462606528,
    "code": "54.5992170721336:-5.90142462606528",
    "street": "Newtownards Road",
    "lat": 54.5992170721336,
    "direction": "Inward"
  },
  "54.5966559241939:-5.92851286708313": {
    "name": "Donegal Square East",
    "lon": -5.92851286708313,
    "code": "54.5966559241939:-5.92851286708313",
    "street": "Donegall Square East",
    "lat": 54.5966559241939,
    "direction": "CityCentre"
  },
  "54.6131287580357:-5.93606638749578": {
    "name": "Newlodge Road",
    "lon": -5.93606638749578,
    "code": "54.6131287580357:-5.93606638749578",
    "street": "Antrim Road",
    "lat": 54.6131287580357,
    "direction": "Inward"
  },
  "54.6101930916809:-5.97288582439716": {
    "name": "Forthriver Road(Ballygomartin)",
    "lon": -5.97288582439716,
    "code": "54.6101930916809:-5.97288582439716",
    "street": "Forthriver Road",
    "lat": 54.6101930916809,
    "direction": "Outward"
  },
  "54.6044368035079:-5.95597677421895": {
    "name": "Glenwood Street",
    "lon": -5.95597677421895,
    "code": "54.6044368035079:-5.95597677421895",
    "street": "Shankill Road",
    "lat": 54.6044368035079,
    "direction": "Outward"
  },
  "54.584872052008:-5.97655710618258": {
    "name": "Falls Park",
    "lon": -5.97655710618258,
    "code": "54.584872052008:-5.97655710618258",
    "street": "Falls Road",
    "lat": 54.584872052008,
    "direction": "Outward"
  },
  "54.6566038002197:-5.93798454496264": {
    "name": "Tree Tops",
    "lon": -5.93798454496264,
    "code": "54.6566038002197:-5.93798454496264",
    "street": "Antrim Road",
    "lat": 54.6566038002197,
    "direction": "Inward"
  },
  "54.646954133577:-5.92118254089198": {
    "name": "Catherine Court",
    "lon": -5.92118254089198,
    "code": "54.646954133577:-5.92118254089198",
    "street": "Whitewell Road",
    "lat": 54.646954133577,
    "direction": "Inward"
  },
  "54.6631307305275:-5.94720156523414": {
    "name": "Antrim Road(Bellevue)",
    "lon": -5.94720156523414,
    "code": "54.6631307305275:-5.94720156523414",
    "street": "Antrim Road",
    "lat": 54.6631307305275,
    "direction": "Outward"
  },
  "54.6183881178586:-5.97185895927374": {
    "name": "Abbeydale Park",
    "lon": -5.97185895927374,
    "code": "54.6183881178586:-5.97185895927374",
    "street": "Crumlin Road",
    "lat": 54.6183881178586,
    "direction": "Inward"
  },
  "54.6301476830117:-5.938781787328": {
    "name": "Chichester Avenue",
    "lon": -5.938781787328,
    "code": "54.6301476830117:-5.938781787328",
    "street": "Antrim Road",
    "lat": 54.6301476830117,
    "direction": "Outward"
  },
  "54.6174253730746:-5.938279535467": {
    "name": "Waterworks",
    "lon": -5.938279535467,
    "code": "54.6174253730746:-5.938279535467",
    "street": "Antrim Road",
    "lat": 54.6174253730746,
    "direction": "Outward"
  },
  "54.5970607906637:-5.93169553638995": {
    "name": "Donegall Square West",
    "lon": -5.93169553638995,
    "code": "54.5970607906637:-5.93169553638995",
    "street": "Donegall Square West",
    "lat": 54.5970607906637,
    "direction": "CityCentre"
  },
  "54.6094508528341:-5.86698253612939": {
    "name": "Ashfield Boys",
    "lon": -5.86698253612939,
    "code": "54.6094508528341:-5.86698253612939",
    "street": "Hollywood Road",
    "lat": 54.6094508528341,
    "direction": "Inward"
  },
  "54.5953300039189:-5.90266136260315": {
    "name": "Templemore Avenue",
    "lon": -5.90266136260315,
    "code": "54.5953300039189:-5.90266136260315",
    "street": "Albert Bridge Road",
    "lat": 54.5953300039189,
    "direction": "Outward"
  },
  "54.5973013412879:-5.93262729100368": {
    "name": "Belfast City Centre",
    "lon": -5.93262729100368,
    "code": "54.5973013412879:-5.93262729100368",
    "street": "Wellington Place",
    "lat": 54.5973013412879,
    "direction": "CityCentre"
  },
  "54.5657858862197:-5.95028877862801": {
    "name": "Malone Road (Myrtlefield Park)",
    "lon": -5.95028877862801,
    "code": "54.5657858862197:-5.95028877862801",
    "street": "Malone Road",
    "lat": 54.5657858862197,
    "direction": "Outward"
  },
  "54.552269505583:-5.97464775584132": {
    "name": "Malone View",
    "lon": -5.97464775584132,
    "code": "54.552269505583:-5.97464775584132",
    "street": "Upper Malone Road",
    "lat": 54.552269505583,
    "direction": "Inward"
  },
  "54.6189363686971:-5.94947458296614": {
    "name": "Cardigan Drive",
    "lon": -5.94947458296614,
    "code": "54.6189363686971:-5.94947458296614",
    "street": "Cliftonville Road",
    "lat": 54.6189363686971,
    "direction": "Inward"
  },
  "54.609653491209:-5.96910477167124": {
    "name": "Ballygomartin(Glencairn Cresc)",
    "lon": -5.96910477167124,
    "code": "54.609653491209:-5.96910477167124",
    "street": "Ballygomartin Road",
    "lat": 54.609653491209,
    "direction": "Other"
  },
  "54.5670064923583:-6.0121103875401": {
    "name": "Stewartstown Road(Woodbourne)",
    "lon": -6.0121103875401,
    "code": "54.5670064923583:-6.0121103875401",
    "street": "Stewartstown Road",
    "lat": 54.5670064923583,
    "direction": "Outward"
  },
  "54.5587651094601:-5.98915170931496": {
    "name": "Upton Park",
    "lon": -5.98915170931496,
    "code": "54.5587651094601:-5.98915170931496",
    "street": "Upper Lisburn Road",
    "lat": 54.5587651094601,
    "direction": "Outward"
  },
  "54.5998007120834:-5.90503137746564": {
    "name": "Tower Street",
    "lon": -5.90503137746564,
    "code": "54.5998007120834:-5.90503137746564",
    "street": "Newtownards Road",
    "lat": 54.5998007120834,
    "direction": "Outward"
  },
  "54.5921789382138:-5.89041417713703": {
    "name": "Abetta Parade",
    "lon": -5.89041417713703,
    "code": "54.5921789382138:-5.89041417713703",
    "street": "Beersbridge Road",
    "lat": 54.5921789382138,
    "direction": "Inward"
  },
  "54.5729499809687:-5.99658781586504": {
    "name": "Stewartstown Road(Shaws Road)",
    "lon": -5.99658781586504,
    "code": "54.5729499809687:-5.99658781586504",
    "street": "Stewartstown Road",
    "lat": 54.5729499809687,
    "direction": "Outward"
  },
  "54.5685299864044:-5.99283055526436": {
    "name": "Ladybrook Shops",
    "lon": -5.99283055526436,
    "code": "54.5685299864044:-5.99283055526436",
    "street": "Ladybrook Park",
    "lat": 54.5685299864044,
    "direction": "Inward"
  },
  "54.5822451475383:-5.88291472527037": {
    "name": "Houston Park",
    "lon": -5.88291472527037,
    "code": "54.5822451475383:-5.88291472527037",
    "street": "Castlereagh Road",
    "lat": 54.5822451475383,
    "direction": "Outward"
  },
  "54.5953673385828:-5.90637319892148": {
    "name": "The Mount",
    "lon": -5.90637319892148,
    "code": "54.5953673385828:-5.90637319892148",
    "street": "Albert Bridge Road",
    "lat": 54.5953673385828,
    "direction": "Outward"
  },
  "54.5896374508921:-5.9018555003731": {
    "name": "Willowfield Crescent",
    "lon": -5.9018555003731,
    "code": "54.5896374508921:-5.9018555003731",
    "street": "Woodstock Road",
    "lat": 54.5896374508921,
    "direction": "Inward"
  },
  "54.5945802694114:-5.83862292307728": {
    "name": "Stormont Court",
    "lon": -5.83862292307728,
    "code": "54.5945802694114:-5.83862292307728",
    "street": "Upper Newtownards Road",
    "lat": 54.5945802694114,
    "direction": "Inward"
  },
  "54.5919438397838:-5.89910652764914": {
    "name": "John Long's Corner",
    "lon": -5.89910652764914,
    "code": "54.5919438397838:-5.89910652764914",
    "street": "Castlereagh Road",
    "lat": 54.5919438397838,
    "direction": "Inward"
  },
  "54.6192706311952:-5.95329752690429": {
    "name": "Torrens Crescent",
    "lon": -5.95329752690429,
    "code": "54.6192706311952:-5.95329752690429",
    "street": "Oldpark Road",
    "lat": 54.6192706311952,
    "direction": "Inward"
  },
  "54.6057035788445:-5.97843333637727": {
    "name": "Ballymagarry Lane",
    "lon": -5.97843333637727,
    "code": "54.6057035788445:-5.97843333637727",
    "street": "Ballygomartin Road",
    "lat": 54.6057035788445,
    "direction": "Inward"
  },
  "54.6240586858702:-5.97568017141902": {
    "name": "Leggagh Court",
    "lon": -5.97568017141902,
    "code": "54.6240586858702:-5.97568017141902",
    "street": "Crumlin Road",
    "lat": 54.6240586858702,
    "direction": "Outward"
  },
  "54.6085741514973:-5.86822029475213": {
    "name": "Carolhill",
    "lon": -5.86822029475213,
    "code": "54.6085741514973:-5.86822029475213",
    "street": "Hollywood Road",
    "lat": 54.6085741514973,
    "direction": "Inward"
  },
  "54.5936185911777:-5.90189831891359": {
    "name": "Paxton Street",
    "lon": -5.90189831891359,
    "code": "54.5936185911777:-5.90189831891359",
    "street": "Castlereagh Street",
    "lat": 54.5936185911777,
    "direction": "Outward"
  },
  "54.5989108405085:-5.91228858205228": {
    "name": "Scirocco Works",
    "lon": -5.91228858205228,
    "code": "54.5989108405085:-5.91228858205228",
    "street": "Short Strand",
    "lat": 54.5989108405085,
    "direction": "Inward"
  }
}